Country,City,AccentCity,Region,Population,Latitude,Longitude
ie,aasleagh,Aasleagh,10,,53.6166667,-9.666666699999999
ie,abbevill,Abbevill,04,,51.966666700000005,-8.583333300000001
ie,abbeville,Abbeville,04,,51.966666700000005,-8.583333300000001
ie,abbey,Abbey,10,,53.1030556,-8.392222199999999
ie,abbeydorney,Abbeydorney,11,,52.35,-9.683333300000001
ie,abbeyfeale,Abbeyfeale,16,1734.0,52.3813889,-9.3025
ie,abbeylara,Abbeylara,18,,53.7666667,-7.45
ie,abbeyleix,Abbeyleix,15,1711.0,52.8991667,-7.3575
ie,abbeymahon,Abbeymahon,04,,51.633055600000006,-8.775277800000001
ie,abbey mount,Abbey Mount,04,,51.6008333,-9.1377778
ie,abbeyshrule,Abbeyshrule,18,,53.5833333,-7.65
ie,abbeyside,Abbeyside,27,,52.093888899999996,-7.6113889000000015
ie,abbeytown,Abbeytown,20,,54.1716667,-9.1611111
ie,abbeyville,Abbeyville,25,,54.0608333,-8.503611099999999
ie,abbot's cross roads,Abbot's Cross Roads,12,,52.913888899999996,-6.822777799999999
ie,abbotstown,Abbotstown,07,,53.3930556,-6.355
ie,abhainn an scail,Abhainn an Scáil,11,,52.1516667,-10.0566667
ie,abhoca,Abhóca,31,,52.85277779999999,-6.2169444
ie,abington,Abington,16,,52.635555599999996,-8.4147222
ie,accrour bridge,Accrour Bridge,16,,52.374444399999994,-8.906666699999999
ie,achadh an iuir,Achadh an Iúir,02,,53.8338889,-7.0755555999999995
ie,achadh ur,Achadh Úr,13,,52.7341667,-7.398888900000001
ie,achill,Achill,20,,53.9311111,-9.915
ie,achill sound,Achill Sound,20,,53.927777799999994,-9.9391667
ie,achonry,Achonry,25,,54.082777799999995,-8.6669444
ie,aclare,Aclare,25,,54.033333299999995,-8.9
ie,adamstown,Adamstown,27,,52.228055600000005,-7.2341667
ie,adamstown,Adamstown,30,,52.3941667,-6.7169444
ie,adare,Adare,16,,52.5619444,-8.7955556
ie,addergoole,Addergoole,10,,53.363055599999996,-9.015555599999999
ie,addragool,Addragool,10,,53.3211111,-9.144444400000001
ie,adoca,Adoca,31,,52.85277779999999,-6.2169444
ie,adrigole,Adrigole,04,,51.7008333,-9.725
ie,adrivale,Adrivale,04,,52.0344444,-9.1105556
ie,aeaun bridge,Aeaun Bridge,01,,52.8433333,-6.6633333
ie,agall,Agall,23,,53.256111100000005,-7.6016667
ie,agar bridge,Agar Bridge,12,,53.24222220000001,-6.949722200000001
ie,aghaboe,Aghaboe,15,,52.9188889,-7.5119444
ie,aghabog,Aghabog,22,,54.14972220000001,-7.0894444000000005
ie,aghabulloge,Aghabulloge,04,,51.9333333,-8.8
ie,aghabullogue,Aghabullogue,04,,51.9333333,-8.8
ie,aghacunna,Aghacunna,04,,51.874444399999994,-9.091944400000001
ie,aghacurreen,Aghacurreen,11,,52.089722200000004,-9.5652778
ie,aghada,Aghada,04,,51.8391667,-8.212222200000001
ie,aghade bridge,Aghade Bridge,01,,52.7575,-6.7255556
ie,aghadoon,Aghadoon,20,,54.271111100000006,-10.0297222
ie,aghadreen,Aghadreen,15,,52.91,-7.178888900000001
ie,aghadreenagh,Aghadreenagh,02,,54.0783333,-7.3094444
ie,aghadruminsh,Aghadruminsh,14,,53.980555599999995,-7.6980556
ie,aghaglinny north,Aghaglinny North,03,,53.139166700000004,-9.218888900000001
ie,aghagower,Aghagower,20,,53.75,-9.4666667
ie,aghagrania,Aghagrania,14,,54.068611100000005,-8.0169444
ie,aghakilmore,Aghakilmore,14,,54.0233333,-7.9969444
ie,aghalackan,Aghalackan,02,,53.972777799999996,-7.300277799999999
ie,aghalane,Aghalane,02,,54.122777799999994,-7.4775
ie,aghaleague,Aghaleague,14,,54.03972220000001,-7.708611099999999
ie,aghalenty,Aghalenty,06,,54.99,-7.683888900000001
ie,aghalough,Aghalough,06,,54.5663889,-7.8416667
ie,aghamackalinn,Aghamackalinn,22,,54.3916667,-7.049722200000001
ie,aghamore,Aghamore,14,,53.9,-7.95
ie,aghamore,Aghamore,20,,53.8166667,-8.816666699999999
ie,aghamore,Aghamore,25,,54.239444400000004,-8.448888900000002
ie,aghancon,Aghancon,15,,53.03222220000001,-7.7883333
ie,aghanure,Aghanure,01,,52.87527779999999,-6.9297222000000005
ie,aghanvilla,Aghanvilla,23,,53.2,-7.3166667
ie,agharroo,Agharroo,14,,54.4575,-8.3294444
ie,aghaterry,Aghaterry,15,,52.8691667,-7.0694444
ie,aghatubrid,Aghatubrid,11,,51.881111100000005,-10.1963889
ie,aghatubrid bridge,Aghatubrid Bridge,11,,51.881111100000005,-10.1963889
ie,aghavannagh,Aghavannagh,31,,52.9141667,-6.4169444
ie,aghavannah,Aghavannah,31,,52.9141667,-6.4169444
ie,aghavas,Aghavas,14,,53.953888899999995,-7.716111099999999
ie,aghaveagh,Aghaveagh,06,,54.7966667,-7.885277799999999
ie,aghaville,Aghaville,04,,51.658888899999994,-9.343333300000001
ie,aghaville cross roads,Aghaville Cross Roads,04,,51.658888899999994,-9.343333300000001
ie,aghavrin cross roads,Aghavrin Cross Roads,04,,51.9322222,-8.8113889
ie,aghaward,Aghaward,20,,53.932222200000005,-9.104166699999999
ie,aghduff bridge,Aghduff Bridge,16,,52.5155556,-8.896666699999999
ie,aghern,Aghern,04,,52.0825,-8.1522222
ie,aghinree bridge,Aghinree Bridge,31,,52.82777779999999,-6.646388900000001
ie,aghlattacru,Aghlattacru,22,,53.944166700000004,-6.7175
ie,aghlaverty,Aghlaverty,22,,54.245555599999996,-6.8991667
ie,aghleam,Aghleam,20,,54.1158333,-10.1022222
ie,aghlem bridge,Aghlem Bridge,06,,54.6566667,-8.0191667
ie,aghnafarcan,Aghnafarcan,22,,54.0633333,-6.7483333
ie,aghnagap,Aghnagap,22,,54.221944400000005,-6.89
ie,aghnagar bridge,Aghnagar Bridge,11,,51.89944439999999,-10.2486111
ie,aghnagollop,Aghnagollop,14,,54.03777779999999,-8.0266667
ie,aghnahaha,Aghnahaha,14,,54.3841667,-8.1394444
ie,aghnakily,Aghnakily,15,,53.023611100000004,-7.2208333
ie,aghnamarroge cross roads,Aghnamarroge Cross Roads,04,,51.836388899999996,-8.7483333
ie,aghnamullen,Aghnamullen,22,,54.0930556,-6.96
ie,aghnanus bridge,Aghnanus Bridge,11,,51.953888899999995,-9.3908333
ie,aghnaskeagh,Aghnaskeagh,19,,54.046111100000005,-6.3680556
ie,aghoney,Aghoney,15,,52.930833299999996,-7.198888900000001
ie,aghoo,Aghoo,14,,54.028055599999995,-7.7958333
ie,aghoo,Aghoo,24,,54.0383333,-8.2236111
ie,aghoo,Aghoo,25,,54.1480556,-8.3016667
ie,aghoura,Aghoura,13,,52.7341667,-7.398888900000001
ie,aghow,Aghow,31,,52.7591667,-6.614722200000001
ie,aghreena,Aghreena,15,,52.8541667,-7.11
ie,aglish,Aglish,03,,52.9844444,-9.0025
ie,aglish,Aglish,04,,51.8869444,-8.764166699999999
ie,aglish,Aglish,11,,52.133888899999995,-10.1436111
ie,aglish,Aglish,26,,53.038611100000004,-8.086388900000001
ie,aglish,Aglish,27,,52.0688889,-7.8275
ie,agraglin bridge,Agraglin Bridge,04,,52.1666667,-8.219722200000001
ie,ahadallane,Ahadallane,04,,52.0222222,-8.6997222
ie,ahadallane cross roads,Ahadallane Cross Roads,04,,52.03,-8.6925
ie,ahafona,Ahafona,11,,52.504444400000004,-9.658611099999998
ie,ahakista,Ahakista,04,,51.6055556,-9.635833300000002
ie,ahaphuca bridge,Ahaphuca Bridge,04,,52.3005556,-8.382222200000001
ie,aharney,Aharney,23,,53.3044444,-7.584722200000001
ie,ahascragh,Ahascragh,10,,53.3955556,-8.3294444
ie,ahaunduff cross roads,Ahaunduff Cross Roads,04,,51.851388899999996,-8.794166699999998
ie,ahavoher bridge,Ahavoher Bridge,11,,52.47722220000001,-9.371111099999998
ie,ahenny,Ahenny,26,,52.4152778,-7.397222200000001
ie,aherla,Aherla,04,,51.8572222,-8.738888900000001
ie,ahgmore bridge,Ahgmore Bridge,26,,52.8475,-7.955277799999999
ie,ahimma,Ahimma,11,,52.490277799999994,-9.646111099999999
ie,ahnagh bridge,Ahnagh Bridge,16,,52.6705556,-8.4638889
ie,ahnagh cross,Ahnagh Cross,03,,52.8208333,-9.416666699999999
ie,ahqunboy,Ahqunboy,04,,51.693611100000005,-8.89
ie,aiden's cross roads,Aiden's Cross Roads,30,,52.6555556,-6.5569444
ie,aighe,Aighe,06,,54.737222200000005,-8.430833300000002
ie,ail finn,Ail Finn,24,,53.85,-8.2
ie,aille,Aille,20,,53.7666667,-9.4
ie,aillemore,Aillemore,20,,53.7083333,-9.870833300000001
ie,aillenacally,Aillenacally,10,,53.4216667,-9.9055556
ie,ailt an chorrain,Ailt an Chorráin,06,,54.9855556,-8.431111099999999
ie,aird mhor,Aird Mhór,27,,51.9491667,-7.725277799999999
ie,alder trees,Alder Trees,30,,52.588333299999995,-6.4997222
ie,aldworth's bridge,Aldworth's Bridge,04,,52.2177778,-9.021388900000002
ie,alexandra bridge,Alexandra Bridge,12,,53.2875,-6.682222200000001
ie,alkill,Alkill,22,,54.2505556,-6.8608332999999995
ie,allagesh,Allagesh,22,,54.2625,-7.1133333
ie,alleeny bridge,Alleeny Bridge,10,,53.0275,-8.390555599999999
ie,allen,Allen,12,,53.2405556,-6.87
ie,allen's bridge,Allen's Bridge,04,,52.1875,-8.9661111
ie,allenwood,Allenwood,12,,53.2869444,-6.8944444
ie,allenwood cross roads,Allenwood Cross Roads,12,,53.2863889,-6.827777799999999
ie,allihies,Allihies,04,,51.6333333,-10.0333333
ie,alloon lower,Alloon Lower,10,,53.3933333,-8.475833300000001
ie,almaseed bridge,Almaseed Bridge,26,,52.2938889,-8.166388900000001
ie,altadoo,Altadoo,06,,54.682222200000005,-8.1716667
ie,altadush,Altadush,06,,54.931388899999995,-7.9494444
ie,altagowlan,Altagowlan,24,,54.1083333,-8.152777799999999
ie,altahalla,Altahalla,06,,55.2463889,-7.407777799999999
ie,altakeeran,Altakeeran,14,,54.1163889,-7.905
ie,alt,Alt,06,,54.765,-7.591388900000001
ie,altans,Altans,25,,54.2441667,-8.8469444
ie,altateskin,Altateskin,02,,54.1511111,-7.784722200000001
ie,alt lower,Alt Lower,06,,54.7666667,-7.5833333
ie,altnabrocky,Altnabrocky,20,,54.082222200000004,-9.573888900000002
ie,altnagapple,Altnagapple,06,,54.728333299999996,-8.3761111
ie,altnapaste,Altnapaste,06,,54.814722200000006,-7.8991667
ie,alt upper,Alt Upper,06,,54.765,-7.591388900000001
ie,america,America,24,,53.318611100000005,-8.068333299999999
ie,an abhainn dubh,An Abhainn Dubh,30,,52.4466667,-6.3452778
ie,anablaha,Anablaha,11,,52.1166667,-9.383333300000002
ie,anaglog cross,Anaglog Cross,19,,53.8241667,-6.5311110999999995
ie,anaglog cross roads,Anaglog Cross Roads,19,,53.8241667,-6.5311110999999995
ie,anascaul,Anascaul,11,,52.1516667,-10.0566667
ie,an baile atha hulla,An Baile Átha hÚlla,04,,52.14944439999999,-8.4005556
ie,an baile beag,An Baile Beag,26,,52.6394444,-7.7380556
ie,an baile dubh,An Baile Dubh,11,,52.4513889,-9.6625
ie,an baile dubh,An Baile Dubh,27,,52.146666700000004,-8.0536111
ie,an baile mor,An Baile Mór,10,,53.230277799999996,-8.18
ie,an baile mor,An Baile Mór,12,,53.1333333,-6.616666700000001
ie,an baile mor,An Baile Mór,29,,53.4833333,-7.6666667
ie,an baile nua,An Baile Nua,04,,52.0591667,-8.0986111
ie,an baile nua,An Baile Nua,06,,54.9963889,-7.5191667
ie,an baile nua,An Baile Nua,27,,52.08888889999999,-7.853055599999999
ie,an bhainseach,An Bháinseach,26,,52.448055599999996,-8.0625
ie,an bhlarna,An Bhlarna,04,,51.9333333,-8.566666699999999
ie,an bhuirios,An Bhuiríos,01,,52.6,-6.9175
ie,an blaic,An Blaic,02,,54.292777799999996,-7.875277799999999
ie,an bothar bui,An Bóthar Buí,21,,53.4183333,-6.835277799999999
ie,an bru,An Brú,16,,52.474166700000005,-8.545833300000002
ie,an bun beag,An Bun Beag,06,,55.05972220000001,-8.3002778
ie,an cabhan,An Cabhán,02,,53.9908333,-7.3605556
ie,an caislean nua,An Caisleán Nua,07,,53.3011111,-6.5022222
ie,an caislean nua,An Caisleán Nua,16,,52.4491667,-9.0611111
ie,an caislean nua,An Caisleán Nua,31,,53.0683333,-6.0658332999999995
ie,an caislean riabhach,An Caisleán Riabhach,24,,53.7666667,-8.5
ie,an caladh,An Caladh,11,,51.8861111,-10.361666699999999
ie,an caol,An Caol,20,,53.966666700000005,-10.083333300000001
ie,an carraigin,An Carraigín,06,,54.95,-7.4333333
ie,an charraig,An Charraig,06,,54.6575,-8.631666699999998
ie,an chathair,Án Chathair,26,,52.3769444,-7.9216667
ie,an cheapach,An Cheapach,26,,52.581944400000005,-8.163611099999999
ie,an cheapach mhor,An Cheapach Mhór,16,,52.614444400000004,-8.3355556
ie,an cheathru chaol,An Cheathrú Chaol,06,,55.1333333,-7.65
ie,an cheathru rua,An Cheathrú Rua,10,,53.2655556,-9.583611099999999
ie,an chill,An Chill,12,,53.251388899999995,-6.5916667
ie,an chloch,An Chloch,13,,52.86,-7.1669444
ie,an chluaine,An Chluaine,14,,53.95,-7.7833333
ie,an chorrchoill,An Chorrchoill,12,,53.29027779999999,-6.753888900000001
ie,an chraig,An Chráig,10,,53.048333299999996,-8.400277800000001
ie,an chrois dhearg,An Chrois Dhearg,31,,52.8858333,-6.1458333
ie,an chuil,An Chúil,29,,53.7,-7.383333299999999
ie,an clochan,An Clochán,10,,53.4833333,-10.016666699999998
ie,an clochan,An Clochán,23,,53.2216667,-7.8841667
ie,an clochan liath,An Clochán Liath,06,,54.951111100000006,-8.3591667
ie,an cloichin,An Cloichín,26,,52.275833299999995,-7.9922222000000005
ie,an cloigeann,An Cloigeann,10,,53.55,-10.116666699999998
ie,an cnoc rua,An Cnoc Rua,02,,54.1,-7.3166667
ie,an cobh,An Cóbh,04,,51.8572222,-8.2991667
ie,an coirean,An Coireán,11,,51.8333333,-10.166666699999999
ie,an craoslach,An Craoslach,06,,55.1166667,-7.9
ie,an creagan,An Creagán,10,,53.466666700000005,-8.5
ie,an croman,An Cromán,11,,52.116111100000005,-9.9027778
ie,an cruachan,An Cruachán,04,,51.466666700000005,-9.7166667
ie,an daingean,An Daingean,11,,52.1408333,-10.2688889
ie,an daingean,An Daingean,23,,53.296111100000005,-7.289444400000001
ie,an droichead nua,An Droichead Nua,13,,52.631111100000005,-6.994722200000001
ie,an duchoraidh,An Dúchoraidh,06,,54.906388899999996,-8.2094444
ie,an fal carrach,An Fál Carrach,06,,55.1333333,-8.1
ie,an fearann fuar,An Fearann Fuar,11,,52.1666667,-9.55
ie,an fear ban,An Féar Bán,23,,53.269444400000005,-7.8269444
ie,an fheothanach,An Fheothanach,11,,52.216111100000006,-10.355555599999999
ie,an fhiacail,An Fhiacail,03,,52.924722200000005,-8.6452778
ie,an fhianait,An Fhianait,11,,52.2808333,-9.8675
ie,an gabhailin,An Gabhailín,26,,52.497777799999994,-7.980277799999999
ie,an gallbhaile,An Gallbhaile,16,,52.4002778,-8.2927778
ie,an geata ban,An Geata Bán,03,,52.9491667,-8.371388900000001
ie,an geata ban,An Geata Bán,04,,51.830555600000004,-8.229722200000001
ie,an geata mor,An Geata Mór,20,,54.203888899999995,-10.0361111
ie,an ghaobhach,An Ghaobhach,25,,54.1,-8.25
ie,anghnagappall bridge,Anghnagappall Bridge,30,,52.471944400000005,-6.7066667
ie,an ghraig,An Ghráig,10,,53.048333299999996,-8.400277800000001
ie,an ghrainseach,An Ghráinseach,25,,54.4,-8.516666699999998
ie,anghvaneen,Anghvaneen,26,,52.4519444,-7.461388900000001
ie,an gleann,An Gleann,16,,52.57027779999999,-9.2827778
ie,an gleann garbh,An Gleann Garbh,04,,51.75,-9.55
ie,an gleann mor,An Gleann Mor,13,,52.3516667,-7.025
ie,anglesborough,Anglesborough,16,,52.34,-8.318611099999998
ie,anglesey road,Anglesey Road,26,,52.6938889,-8.031388900000001
ie,anglesry bridge,Anglesry Bridge,26,,52.6794444,-8.1625
ie,an gort,An Gort,10,,53.0663889,-8.816666699999999
ie,an grianfort,An Grianfort,19,,54.033333299999995,-6.133333299999999
ie,an inis,An Inis,06,,55.07027779999999,-7.4805556
ie,an inse,An Inse,21,,53.6819444,-6.2391667
ie,an laithreach,An Láithreach,11,,51.75,-9.766666699999998
ie,an laithreach,An Laithreach,31,,53.004444400000004,-6.298888900000001
ie,an lathaigh,An Lathaigh,06,,54.6166667,-8.1
ie,an leacht,An Leacht,03,,52.9366667,-9.3452778
ie,an leathros,An Leathros,25,,54.2719444,-8.593333300000001
ie,an leim,An Léim,04,,51.5925,-9.13
ie,an lios breac,An Lios Breac,18,,53.7666667,-7.8333333
ie,an longfort,An Longfort,18,,53.7333333,-7.8
ie,an mhuirioch,An Mhuirioch,11,,52.186944399999994,-10.363888900000001
ie,an mota,An Móta,29,,53.39388889999999,-7.717222200000001
ie,an muileann gcearr,An Muileann gCearr,29,,53.533333299999995,-7.35
ie,an muileann iarainn,An Muileann Iarainn,02,,54.19472220000001,-7.704444400000001
ie,an mullach,An Mullach,02,,53.8130556,-6.951388900000001
ie,annaboty,Annaboty,26,,52.7375,-8.4575
ie,annacarriga,Annacarriga,03,,52.851111100000004,-8.503888900000002
ie,annacarty,Annacarty,26,,52.5644444,-8.110277799999999
ie,annacurragh,Annacurragh,31,,52.83888889999999,-6.3586111
ie,annadale,Annadale,14,,54.03722220000001,-7.943888900000001
ie,annagary,Annagary,06,,55.0219444,-8.3177778
ie,annagassan,Annagassan,19,,53.8861111,-6.3444444
ie,annagh,Annagh,10,,53.4033333,-9.045277800000001
ie,annagh,Annagh,11,,52.008888899999995,-9.326111099999999
ie,annagh,Annagh,16,,52.67722220000001,-8.451666699999999
ie,annagh,Annagh,25,,54.059444400000004,-8.82
ie,annaghbrack,Annaghbrack,23,,53.18027779999999,-7.5766667000000005
ie,annagh bridge,Annagh Bridge,15,,52.98972220000001,-7.567222200000001
ie,annaghdown,Annaghdown,10,,53.3925,-9.066388900000002
ie,annaghgerry,Annaghgerry,14,,54.1675,-8.1175
ie,annaghkeenly,Annaghkeenly,14,,53.99277779999999,-7.9677777999999995
ie,annaghmore,Annaghmore,14,,53.9,-7.8
ie,annaghmore,Annaghmore,25,,53.9758333,-8.5602778
ie,annaghneal bridges,Annaghneal Bridges,03,,52.8933333,-8.6575
ie,annaghroe bridge,Annaghroe Bridge,22,,54.3386111,-6.874444400000001
ie,annagh upper,Annagh Upper,14,,54.1833333,-8.0455556
ie,annaghvaan,Annaghvaan,10,,53.32,-9.6475
ie,annaghvacky,Annaghvacky,19,,54.033333299999995,-6.5472222
ie,annagleve,Annagleve,22,,54.090277799999996,-6.761111099999999
ie,annagore bridge,Annagore Bridge,03,,52.7569444,-8.7761111
ie,annahatn,Annahatn,04,,51.8777778,-9.0
ie,annaleck,Annaleck,13,,52.586111100000004,-7.0233333
ie,annalittin,Annalittin,22,,54.0891667,-6.696111099999999
ie,annamoe,Annamoe,23,,53.1525,-7.255
ie,annamoe,Annamoe,31,,53.0288889,-6.2519444
ie,an nas,An Nás,12,,53.2158333,-6.6669444
ie,annaseeragh,Annaseeragh,22,,54.2280556,-6.824722200000001
ie,annavalla,Annavalla,22,,54.1591667,-6.790277799999999
ie,anne's bridge,Anne's Bridge,04,,52.209444399999995,-9.0261111
ie,annesbrook,Annesbrook,21,,53.8305556,-6.9308333
ie,annestown,Annestown,27,,52.1380556,-7.3044444
ie,annfield,Annfield,07,,53.3744444,-6.4055556
ie,annie brady bridge,Annie Brady Bridge,20,,54.2705556,-9.724722199999999
ie,annistown,Annistown,04,,51.9430556,-8.040277799999998
ie,anns fort,Anns Fort,02,,54.033333299999995,-6.9833333
ie,an pasaiste,An Pasáiste,04,,51.8738889,-8.3444444
ie,an pasaiste,An Pasáiste,27,,52.236388899999994,-6.9680556
ie,an port nua,An Port Nua,26,,52.711111100000004,-8.4097222
ie,an port rua,An Port Rua,26,,52.8825,-8.350277799999999
ie,an rath mhor,An Ráth Mhór,11,,52.0833333,-9.2166667
ie,an rath mhor,An Ráth Mhór,12,,53.21722220000001,-6.5644444
ie,an ros,An Ros,07,,53.52472220000001,-6.1097222
ie,an ros,An Ros,25,,54.3091667,-8.566111099999999
ie,an scairbh,An Scairbh,03,,52.898888899999996,-8.509166699999998
ie,an sciobairin,An Sciobairin,04,,51.55,-9.266666699999998
ie,an scoil,An Scoil,04,,51.533333299999995,-9.5333333
ie,an seanbhaile mor,An Seanbhaile Mór,04,,52.2202778,-8.5013889
ie,an seanchaislean,An Seanchaisleán,21,,53.7683333,-7.158611099999999
ie,an snaidhm,An Snaidhm,11,,51.8333333,-9.9
ie,an spideal,An Spidéal,10,,53.2466667,-9.302777800000001
ie,an sraidbhaile,An Sráidbhaile,15,,53.0155556,-7.152777799999999
ie,an tabhallort,An tAbhallort,30,,52.5036111,-6.3822222
ie,an taonach,An tAonach,26,,52.8619444,-8.1966667
ie,an teampall mor,An Teampall Mór,26,,52.79472220000001,-7.833888900000001
ie,an tinbhear mor,An tInbhear Mór,31,,52.793055599999995,-6.1413889
ie,an tochar,An Tóchar,11,,52.4133333,-9.7319444
ie,an tochar,An Tóchar,31,,53.0586111,-6.2261111
ie,an tospideal,An tOspidéal,16,,52.473055599999995,-8.4305556
ie,an tsnaidhm,An tSnaidhm,11,,51.8333333,-9.9
ie,an tsraidbhaile,An tSráidbhaile,27,,52.13,-7.46
ie,an tulach,An Tulach,01,,52.800277799999996,-6.7369444000000005
ie,an tulach,An Tulach,03,,52.86472220000001,-8.7605556
ie,an uaimh,An Uaimh,21,,53.652777799999996,-6.681388900000001
ie,an urnai,An Urnaí,01,,52.7505556,-6.909722200000001
ie,aphort,Aphort,06,,54.976388899999996,-8.519444400000001
ie,ara bridge,Ara Bridge,26,,52.4391667,-8.0366667
ie,araglin,Araglin,04,,52.2083333,-8.1161111
ie,ara north,Ara North,20,,53.8541667,-9.1080556
ie,arbatt,Arbatt,06,,54.8783333,-7.979722200000001
ie,ardach,Ardach,16,,52.4944444,-9.0630556
ie,ardach,Ardach,18,,53.6666667,-7.7
ie,ardagh,Ardagh,06,,54.9369444,-7.534722200000001
ie,ardagh,Ardagh,16,,52.4944444,-9.0630556
ie,ardagh,Ardagh,18,,53.6666667,-7.7
ie,ardagh,Ardagh,20,,54.097777799999996,-9.2255556
ie,ardagh,Ardagh,21,,53.89777779999999,-6.7430556
ie,ardaghy,Ardaghy,19,,54.0838889,-6.2838889
ie,ardaghy,Ardaghy,22,,54.21222220000001,-6.9052777999999995
ie,ardamore,Ardamore,11,,52.203055600000006,-10.365833300000002
ie,ard an ratha,Ard an Rátha,06,,54.7644444,-8.4075
ie,ardara,Ardara,06,,54.7644444,-8.4075
ie,ard,Ard,10,,53.3161111,-9.878333300000001
ie,ardarn,Ardarn,06,,54.7644444,-8.4075
ie,ardattin,Ardattin,01,,52.7525,-6.703888900000001
ie,ardcahan bridge,Ardcahan Bridge,04,,51.7605556,-9.0969444
ie,ardcanaght,Ardcanaght,11,,52.163888899999996,-9.738888900000001
ie,ardcath,Ardcath,21,,53.6080556,-6.3913889
ie,ardcost,Ardcost,11,,51.904444399999996,-10.2780556
ie,ardcrony,Ardcrony,26,,52.932222200000005,-8.157222200000001
ie,ardea,Ardea,11,,51.8144444,-9.757777800000001
ie,ardea bridge,Ardea Bridge,11,,51.826666700000004,-9.7425
ie,ardee,Ardee,19,4008.0,53.85972220000001,-6.540555599999999
ie,ardeen,Ardeen,04,,51.9366667,-9.0875
ie,ardeen,Ardeen,31,,52.7536111,-6.5261111
ie,ardeevin,Ardeevin,06,,54.6911111,-8.019444400000001
ie,arderra,Arderra,13,,52.311111100000005,-7.2219444
ie,arderry,Arderry,14,,54.004444400000004,-7.7325
ie,ardfallen,Ardfallen,04,,51.883055600000006,-8.4477778
ie,ardfert,Ardfert,11,,52.3333333,-9.7833333
ie,ard fhearta,Ard Fhearta,11,,52.3333333,-9.7833333
ie,ard fhionain,Ard Fhíonáin,26,,52.3116667,-7.875
ie,ardfield,Ardfield,04,,51.5666667,-8.9144444
ie,ardfinnan,Ardfinnan,26,,52.3116667,-7.875
ie,ardgehane,Ardgehane,04,,51.603333299999996,-8.829722199999999
ie,ardgroom,Ardgroom,04,,51.74055560000001,-9.8955556
ie,ardhoom,Ardhoom,20,,53.9341667,-9.045277800000001
ie,ardinode,Ardinode,12,,53.1166667,-6.633333299999999
ie,ardkeeran,Ardkeeran,25,,54.0533333,-8.5255556
ie,ardled,Ardled,15,,52.979722200000005,-7.3805556
ie,ardlona,Ardlona,25,,53.9475,-8.3919444
ie,ardlougher,Ardlougher,02,,54.0619444,-7.5755555999999995
ie,ardloy,Ardloy,25,,54.1005556,-8.405
ie,ardmeen,Ardmeen,06,,54.97777779999999,-8.26
ie,ardmoneen,Ardmoneen,02,,54.1105556,-7.823611099999999
ie,ardmore,Ardmore,06,,55.079722200000006,-7.2775
ie,ardmore,Ardmore,10,,53.31527779999999,-9.7691667
ie,ardmore,Ardmore,11,,51.8069444,-9.9905556
ie,ardmore,Ardmore,12,,53.0305556,-6.965
ie,ardmore,Ardmore,27,,51.9491667,-7.725277799999999
ie,ardmorney,Ardmorney,29,,53.3836111,-7.4666667
ie,ardnacrusha,Ardnacrusha,03,,52.6833333,-8.616666699999998
ie,ardnacrushy,Ardnacrushy,04,,51.9263889,-9.009166699999998
ie,ardnaglass,Ardnaglass,06,,54.81527779999999,-7.549722200000001
ie,ardnaglass upper,Ardnaglass Upper,25,,54.3791667,-8.4811111
ie,ardnagreevagh,Ardnagreevagh,10,,53.604722200000005,-10.0102778
ie,ardnaree,Ardnaree,06,,55.0591667,-7.628611099999999
ie,ardnaree,Ardnaree,20,,54.1088889,-9.1511111
ie,ardnasodan,Ardnasodan,10,,53.406388899999996,-8.8130556
ie,ardogelly,Ardogelly,25,,54.2533333,-8.776666699999998
ie,ardpatrick,Ardpatrick,16,,52.3422222,-8.526666699999998
ie,ardrahan,Ardrahan,10,,53.1575,-8.805833300000002
ie,ardrahan,Ardrahan,11,,52.3536111,-9.756111099999998
ie,ardrah,Ardrah,04,,51.743333299999996,-9.348333300000002
ie,ard raithin,Ard Raithin,10,,53.1575,-8.805833300000002
ie,ardranny,Ardranny,10,,53.25,-8.3
ie,ards,Ards,06,,55.021666700000004,-7.6833333
ie,ards,Ards,18,,53.6333333,-7.8333333
ie,ardsbeg,Ardsbeg,06,,55.1166667,-8.15
ie,ardscull,Ardscull,12,,53.0175,-6.9091667
ie,ardskeagh cross roads,Ardskeagh Cross Roads,04,,52.3338889,-8.6280556
ie,ardskea more,Ardskea More,10,,53.417777799999996,-8.846111099999998
ie,ardsollus,Ardsollus,03,,52.7975,-8.888888900000001
ie,ardsollus bridge,Ardsollus Bridge,03,,52.7975,-8.888888900000001
ie,ardtully,Ardtully,19,,53.994722200000005,-6.175
ie,ardvally,Ardvally,06,,54.74,-8.3608333
ie,ardvally,Ardvally,20,,54.1430556,-9.115277800000001
ie,ardy,Ardy,06,,55.1166667,-7.5166667
ie,ardywanig,Ardywanig,11,,52.1477778,-9.6627778
ie,argideen bridge,Argideen Bridge,04,,51.66111110000001,-8.995
ie,arigna,Arigna,24,,54.07777779999999,-8.105555599999999
ie,arigna bridge,Arigna Bridge,13,,52.7269444,-7.371111099999999
ie,arklow,Arklow,31,10622.0,52.793055599999995,-6.1413889
ie,arless,Arless,15,,52.9,-7.0333333
ie,armhach,Ármhach,02,,53.9166667,-7.5833333
ie,arnagragh,Arnagragh,11,,52.216666700000005,-9.383333300000002
ie,arragh more,Arragh More,26,,53.055833299999996,-8.0305556
ie,arryheernabin,Arryheernabin,06,,55.27,-7.6405556
ie,artane,Artane,07,,53.3825,-6.2025
ie,arthurstown,Arthurstown,12,,53.2319444,-6.5733333
ie,arthurstown,Arthurstown,30,,52.24055560000001,-6.956388900000001
ie,arva,Arva,02,,53.9166667,-7.5833333
ie,arvagh,Arvagh,02,,53.9166667,-7.5833333
ie,ashakiltubbrid,Ashakiltubbrid,14,,53.9333333,-7.75
ie,ashbourne,Ashbourne,21,7001.0,53.5108333,-6.4272222
ie,ashbrook,Ashbrook,06,,54.4744444,-8.192222200000002
ie,ashfield,Ashfield,15,,52.88972220000001,-7.0441667
ie,ash field,Ash Field,21,,53.8591667,-6.8730556
ie,ashford,Ashford,16,,52.3666667,-9.066666699999999
ie,ashford,Ashford,31,,53.0083333,-6.111388900000001
ie,ashgrove bridge,Ashgrove Bridge,16,,52.466666700000005,-9.099166699999998
ie,ashhill,Ashhill,26,,52.597777799999996,-7.797222200000001
ie,ashlane cross roads,Ashlane Cross Roads,01,,52.839444400000005,-6.859722200000001
ie,ashtown,Ashtown,07,,53.37527779999999,-6.330555599999999
ie,ashtown,Ashtown,13,,52.3941667,-7.29
ie,ashtown,Ashtown,31,,53.0711111,-6.2419444
ie,askamore,Askamore,30,,52.6713889,-6.4758333
ie,askeaton,Askeaton,16,,52.59972220000001,-8.9755556
ie,askill,Askill,14,,54.4333333,-8.1833333
ie,askintarney,Askintarney,30,,52.4758333,-6.7775
ie,askintinny,Askintinny,31,,52.764166700000004,-6.1516667
ie,aspealy bridge,Aspealy Bridge,30,,52.25944439999999,-6.4552778
ie,ass bridge,Ass Bridge,20,,53.8694444,-9.446666699999998
ie,astee,Astee,11,,52.5508333,-9.560555599999999
ie,atadav bridge,Atadav Bridge,11,,51.7544444,-9.7763889
ie,athabatteen,Athabatteen,04,,51.966666700000005,-8.7833333
ie,ath an chlair,Áth an Chláir,25,,54.033333299999995,-8.9
ie,ath an choiste,Áth an Chóiste,04,,51.9,-8.7833333
ie,ath an mhuilinn,Áth an Mhuilinn,04,,52.3333333,-8.85
ie,ath an tsleibhe,Áth an tSléibhe,16,,52.45972220000001,-9.2894444
ie,athboy,Athboy,21,1656.0,53.6186111,-6.920555599999999
ie,ath cinn,Áth Cinn,10,,53.466666700000005,-9.1
ie,ath dara,Áth Dara,16,,52.5619444,-8.7955556
ie,athdown,Athdown,31,,53.1741667,-6.401388900000001
ie,athea,Athea,16,,52.45972220000001,-9.2894444
ie,ath eascrach,Áth Eascrach,10,,53.3955556,-8.3294444
ie,athenry,Athenry,10,2419.0,53.2963889,-8.7430556
ie,athgarvan,Athgarvan,12,,53.1538889,-6.805
ie,athgreany,Athgreany,31,,53.0711111,-6.6305556
ie,athlacca,Athlacca,16,,52.456944400000005,-8.648611099999998
ie,athleague,Athleague,24,,53.5666667,-8.25
ie,ath leathen,Áth Leathen,03,,52.80472220000001,-8.6322222
ie,ath liag,Áth Liag,24,,53.5666667,-8.25
ie,athlone,Athlone,29,15951.0,53.42277779999999,-7.937222200000001
ie,athlunkard bridge,Athlunkard Bridge,03,,52.6811111,-8.6097222
ie,ath na fuinseoige,Ath na Fuinseoige,31,,53.0083333,-6.111388900000001
ie,athnaleenta,Athnaleenta,04,,52.0716667,-8.64
ie,athnanangle bridge,Athnanangle Bridge,04,,51.9583333,-8.7819444
ie,ath na nurlainn,Áth na nUrlainn,13,,52.7205556,-7.5825
ie,ath na sceire,Áth na Sceire,31,,53.1925,-6.1691667
ie,ath na sraide,Áth na Sráide,31,,52.985833299999996,-6.677777799999999
ie,athnid,Athnid,26,,52.7244444,-7.767222200000001
ie,ath ti an mheasaigh,Áth Tí an Mheasaigh,20,,54.049722200000005,-9.0827778
ie,ath tiomain,Áth Tíomáin,10,,53.318611100000005,-8.6063889
ie,ath trasna,Áth Trasna,04,,52.216666700000005,-9.0
ie,athy,Athy,12,6382.0,52.9913889,-6.980277799999999
ie,attanagh,Attanagh,15,,52.836111100000004,-7.371388900000001
ie,attavally,Attavally,20,,54.15472220000001,-9.76
ie,attcoffey,Attcoffey,10,,53.258888899999995,-8.2369444
ie,attimachugh,Attimachugh,20,,54.0063889,-9.0280556
ie,attimanus,Attimanus,14,,53.97472220000001,-7.937777799999999
ie,attinkee,Attinkee,23,,53.2083333,-7.923611099999999
ie,attiregan,Attiregan,10,,53.3691667,-8.4358333
ie,attymass,Attymass,20,,54.049722200000005,-9.0827778
ie,attymon,Attymon,10,,53.318611100000005,-8.6063889
ie,aubawn,Aubawn,02,,54.02222220000001,-7.5430556
ie,auburn,Auburn,29,,53.5,-7.8166667
ie,aucloggeen,Aucloggeen,10,,53.394444400000005,-8.9594444
ie,aughabrack,Aughabrack,04,,51.6755556,-9.99
ie,aughadareen bridge,Aughadareen Bridge,16,,52.4416667,-8.316111099999999
ie,aughagault,Aughagault,06,,54.8655556,-7.7316667
ie,aughagault big,Aughagault Big,06,,54.8666667,-7.7333333
ie,aughagault little,Aughagault Little,06,,54.8666667,-7.7166667
ie,aughaglanna bridge,Aughaglanna Bridge,03,,52.82777779999999,-9.167777800000001
ie,aughanloge bridge,Aughanloge Bridge,03,,52.64777779999999,-9.315833300000001
ie,aughatubbrid,Aughatubbrid,13,,52.8786111,-7.182222200000001
ie,aughaville,Aughaville,04,,51.658888899999994,-9.343333300000001
ie,aughboy,Aughboy,03,,52.7391667,-8.5402778
ie,aughboy bridge,Aughboy Bridge,30,,52.324722200000004,-6.8855556
ie,aughclare,Aughclare,30,,52.3272222,-6.925277799999999
ie,aughill,Aughill,11,,52.161666700000005,-9.8772222
ie,aughils,Aughils,11,,52.161666700000005,-9.8772222
ie,aughinish,Aughinish,03,,53.165,-9.0794444
ie,aughkeely,Aughkeely,06,,54.8675,-7.8105556
ie,aughnacrow bridge,Aughnacrow Bridge,30,,52.488055599999996,-6.6394444
ie,aughnagawer cross roads,Aughnagawer Cross Roads,26,,52.465555599999995,-8.0619444
ie,aughnagroagh bridge,Aughnagroagh Bridge,30,,52.3263889,-6.6405556
ie,aughnasheelan,Aughnasheelan,14,,54.0694444,-7.861111099999999
ie,aughness,Aughness,20,,54.0833333,-9.8469444
ie,aughnish isle,Aughnish Isle,06,,55.051944400000004,-7.5980555999999995
ie,aughrim,Aughrim,03,,53.01027779999999,-8.9444444
ie,aughrim,Aughrim,10,,53.30222220000001,-8.3125
ie,aughrim,Aughrim,14,,54.2205556,-8.0472222
ie,aughrim,Aughrim,31,,52.853333299999996,-6.3275
ie,aughris,Aughris,25,,54.2730556,-8.769444400000001
ie,aughrus more,Aughrus More,10,,53.5466667,-10.1716667
ie,aughshemus bridge,Aughshemus Bridge,27,,52.1744444,-7.393055599999999
ie,aught upper,Aught Upper,06,,55.10722220000001,-7.252222200000001
ie,aurora,Aurora,31,,53.19,-6.2875
ie,avoca,Avoca,31,,52.85277779999999,-6.2169444
ie,avoncore,Avoncore,04,,51.921944399999994,-8.1825
ie,avondhu,Avondhu,04,,52.131666700000004,-8.628333300000001
ie,badgerisland,Badgerisland,15,,52.9316667,-7.490277799999999
ie,badyke,Badyke,03,,52.883888899999995,-8.601111099999999
ie,bagenalstown,Bagenalstown,01,3033.0,52.6958333,-6.989722200000001
ie,baggotstown,Baggotstown,16,,52.45,-8.5
ie,bahana,Bahana,31,,53.1566667,-6.2041667
ie,bahobuck,Bahobuck,10,,53.4119444,-9.0080556
ie,baile an bhiataigh,Baile an Bhiataigh,21,,53.7013889,-6.246111099999999
ie,baile an bhuinneanaigh,Baile an Bhuinneánaigh,11,,52.509722200000006,-9.6716667
ie,baile an chaisil,Baile an Chaisil,20,,54.283333299999995,-9.366666699999998
ie,baile an chaisleain,Baile an Chaisleáin,04,,51.52638889999999,-9.183333300000001
ie,baile an chaisleain,Baile an Chaisleáin,15,,52.976388899999996,-7.4925
ie,baile an chinneidigh,Baile an Chinnéidigh,31,,53.089722200000004,-6.1119444000000005
ie,baile an chollaigh,Baile an Chollaigh,04,,51.8833333,-8.583333300000001
ie,baile an daighin,Baile an Daighin,20,,53.6666667,-8.9666667
ie,baile an doirin,Baile an Doirín,10,,53.1863889,-8.906388900000001
ie,baile an droichid,Baile an Droichid,06,,54.8441667,-7.5258332999999995
ie,baile an droichid,Baile an Droichid,30,,52.228055600000005,-6.5441667
ie,baile an fheirtearaigh,Baile an Fheirtéaraigh,11,,52.1666667,-10.416666699999999
ie,baile an gharrai,Baile an Gharraí,16,,52.472777799999996,-8.863888900000001
ie,baile an gharrai,Baile an Gharraí,26,,52.58722220000001,-7.54
ie,baile an ghearlanaigh,Baile an Ghearlánaigh,19,,53.900833299999995,-6.3902778
ie,baile an locha,Baile an Locha,24,,53.7333333,-8.633333300000002
ie,baile an londraigh,Baile an Londraigh,16,,52.3725,-8.3458333
ie,baile an mhota,Baile an Mhóta,25,,54.0833333,-8.516666699999998
ie,baile an mhuilinn,Baile an Mhuilinn,11,,52.14194439999999,-10.2897222
ie,baile an phoill,Baile an Phoill,13,,52.353333299999996,-7.340277799999999
ie,baile an roba,Baile an Róba,20,,53.6333333,-9.233333300000002
ie,baile an sceilg,Baile an Sceilg,11,,51.8,-10.2833333
ie,baile an scotaigh,Baile an Scotaigh,22,,54.2775,-7.065
ie,baile an teampail,Baile an Teampail,04,,52.2666667,-8.733333300000002
ie,baile an tochair,Baile an Tóchair,25,,54.2,-8.3666667
ie,baile an tsratha,Baile an tSratha,06,,54.5769444,-8.1197222
ie,baile atha an ri,Baile Átha an Rí,10,,53.2963889,-8.7430556
ie,baile atha an roine,Baile Átha an Róine,15,,52.9455556,-7.304166700000001
ie,baile atha bui,Baile Átha Buí,21,,53.6186111,-6.920555599999999
ie,baile atha cliath,Baile Átha Cliath,07,,53.3330556,-6.2488889
ie,baile atha fhirdhia,Baile Átha Fhirdhia,19,,53.85972220000001,-6.540555599999999
ie,baile atha i,Baile Átha Í,12,,52.9913889,-6.980277799999999
ie,baile atha luain,Baile Átha Luain,29,,53.4333333,-7.95
ie,baile atha troim,Baile Átha Troim,21,,53.555,-6.7916667
ie,baile bhlainseir,Baile Bhlainséir,07,,53.3880556,-6.375555599999999
ie,baile bhuirne,Baile Bhuirne,04,,51.9333333,-9.166666699999999
ie,baileborough,Baileborough,02,,53.9166667,-6.9666667
ie,baile brigin,Baile Brigín,07,,53.612777799999996,-6.1819444
ie,baile chaisleain an roistigh,Baile Chaisleáin an Róistigh,04,,52.173333299999996,-8.4625
ie,baile chaisleain bhearra,Baile Chaisleáin Bhéarra,04,,51.65,-9.916666699999999
ie,baile chathail,Baile Chathail,20,,53.9641667,-8.794166699999998
ie,baile chlair,Baile Chláir,10,,53.3386111,-8.945
ie,baile choitin,Baile Choitín,04,,51.8333333,-8.0161111
ie,baile cloch,Baile Cloch,04,,52.1666667,-8.733333300000002
ie,baile coimin,Baile Coimín,31,,53.17,-6.5325
ie,baile conaola,Baile Conaola,10,,53.4333333,-10.066666699999999
ie,baile deasumhan,Baile Deasumhan,04,,52.1833333,-9.233333300000002
ie,baile duill,Baile Dúill,07,,53.39972220000001,-6.1258333
ie,baile easa dara,Baile Easa Dara,25,,54.2116667,-8.5094444
ie,baile haiceid,Baile Haicéid,01,,52.8638889,-6.5569444
ie,baile heil,Baile Héil,13,,52.4680556,-7.196388900000001
ie,baile hiobaird,Baile Hiobaird,16,,52.5186111,-8.4655556
ie,baile idir dha abhainn,Baile idir dhá Abhainn,25,,54.131666700000004,-8.394444400000001
ie,baile iomhair,Baile Íomhair,21,,53.5316667,-6.961111099999999
ie,baile lifin,Baile Lifín,06,,55.283333299999995,-7.4
ie,baile locha riach,Baile Locha Riach,10,,53.1969444,-8.5669444
ie,baile mhic andain,Baile Mhic Andáin,13,,52.5266667,-7.137222200000001
ie,baile mhic gormain,Baile Mhic Gormáin,21,,53.6405556,-6.2377778
ie,baile mhic ire,Baile Mhic Íre,04,,51.9333333,-9.133333300000002
ie,baile mhisteala,Baile Mhistéala,04,,52.2658333,-8.2680556
ie,baile na carraige,Baile na Carraige,29,,53.5833333,-7.5333333
ie,baile na coille,Baile na Coille,15,,52.8738889,-7.308055599999999
ie,baile na cuirte,Baile na Cúirte,30,,52.644722200000004,-6.2230555999999995
ie,baile na gcros,Baile na gCros,29,,53.6666667,-7.3
ie,baile na habhann,Baile na hAbhann,10,,53.243888899999995,-9.5016667
ie,baile na lorgan,Baile na Lorgan,22,,54.1166667,-6.7333333
ie,baile na martra,Baile na Martra,04,,51.910277799999996,-8.0538889
ie,baile na ngalloglach,Baile na nGallóglach,06,,55.0880556,-7.698888900000001
ie,baile nua sheandroma,Baile Nua Sheandroma,04,,52.35,-8.766666699999998
ie,baile phoil,Baile Phóil,13,,52.6811111,-7.022222200000001
ie,baile riobaird,Baile Riobaird,12,,53.2741667,-6.817777799999999
ie,baile sheain,Baile Sheáin,13,,52.7491667,-7.554166700000001
ie,baile sheamais dhuibh,Baile Shéamais Dhuibh,02,,53.865277799999994,-7.202777799999999
ie,baile shlaine,Baile Shláine,21,,53.71,-6.5433333
ie,baile suingean,Baile Suingean,06,,54.9333333,-7.45
ie,baile thiar,Baile Thiar,06,,55.26527779999999,-8.2258333
ie,baile thoir,Baile Thoir,06,,55.2580556,-8.2061111
ie,baile tra,Baile Trá,19,,53.7405556,-6.2675
ie,baile ui bheachain,Baile Uí Bheacháin,03,,53.1180556,-9.150277800000001
ie,baile ui bheolain,Baile Uí Bheoláin,03,,52.9305556,-8.4258333
ie,baile ui chonnmhai,Baile Uí Chonnmhaí,30,,52.6088889,-6.3030555999999995
ie,baile ui fhiachain,Baile Uí Fhiacháin,20,,53.8833333,-9.55
ie,baile ui laigheanain,Baile Uí Laigheanáin,15,,52.943611100000005,-7.042222200000001
ie,baile ui mhathain,Baile Uí Mhatháin,18,,53.5666667,-7.7666667
ie,baile ui thaidhg,Baile Uí Thaidhg,11,,52.3833333,-9.833611099999999
ie,bailieborough,Bailieborough,02,1703.0,53.9166667,-6.9666667
ie,baingear,Baingear,20,,54.1430556,-9.740277800000001
ie,bakers bridge,Bakers Bridge,02,,54.0616667,-7.42
ie,balana,Balana,01,,52.7405556,-6.767777799999999
ie,balbane,Balbane,06,,54.69027779999999,-8.445
ie,balbriggan,Balbriggan,07,11293.0,53.612777799999996,-6.1819444
ie,balcunnin,Balcunnin,07,,53.5633333,-6.1472222
ie,balcynamoyntragh cross roads,Balcynamoyntragh Cross Roads,27,,52.17,-7.039722200000001
ie,baldongan,Baldongan,07,,53.557222200000005,-6.1569444
ie,baldoyle,Baldoyle,07,,53.39972220000001,-6.1258333
ie,baldoyle,Baldoyle,19,,53.7386111,-6.2794444
ie,baldwinstown,Baldwinstown,07,,53.564722200000006,-6.3552778
ie,baldwinstown,Baldwinstown,30,,52.2333333,-6.5833333
ie,balgriffin,Balgriffin,07,,53.409444400000005,-6.1741667
ie,balief cross roads,Balief Cross Roads,13,,52.72472220000001,-7.522222200000001
ie,balinlig,Balinlig,14,,54.377222200000006,-8.3277778
ie,balisakeery,Balisakeery,20,,54.18472220000001,-9.1802778
ie,baliynakilly,Baliynakilly,11,,52.012222200000004,-9.960833300000001
ie,ballaba,Ballaba,10,,53.089722200000004,-8.7786111
ie,balla,Balla,20,,53.8,-9.133333300000002
ie,balladian,Balladian,22,,54.12,-6.9308333
ie,ballagan,Ballagan,19,,54.005277799999995,-6.1233333
ie,ballaghaderg bridge,Ballaghaderg Bridge,04,,52.2858333,-8.281111099999999
ie,ballaghaderreen,Ballaghaderreen,24,1389.0,53.9,-8.583333300000001
ie,ballaghaderren,Ballaghaderren,01,,52.69527779999999,-6.8691667
ie,ballaghassaan,Ballaghassaan,23,,53.2616667,-7.1944444
ie,ballagh,Ballagh,03,,52.961111100000004,-9.235833300000001
ie,ballagh,Ballagh,06,,55.3161111,-7.2977777999999995
ie,ballagh,Ballagh,10,,53.2963889,-9.11
ie,ballagh,Ballagh,16,,52.3738889,-9.078055599999999
ie,ballagh,Ballagh,26,,52.589444400000005,-7.9863889000000015
ie,ballaghboy,Ballaghboy,25,,54.012777799999995,-8.3230556
ie,ballagh cross roads,Ballagh Cross Roads,12,,53.353333299999996,-6.760277799999999
ie,ballagheloghane cross roads,Ballagheloghane Cross Roads,04,,51.7658333,-8.818888900000001
ie,ballaghhammer bridge,Ballaghhammer Bridge,04,,51.6594444,-8.9294444
ie,ballaghkeen,Ballaghkeen,30,,52.479722200000005,-6.42
ie,ballaghmore,Ballaghmore,15,,52.959166700000004,-7.726388900000001
ie,ballaghmore cross roads,Ballaghmore Cross Roads,01,,52.71,-6.7916667
ie,ballaghnageam,Ballaghnageam,22,,53.9541667,-6.8225
ie,ballaghnatrillick,Ballaghnatrillick,25,,54.4166667,-8.3902778
ie,ballaghnatrillick bridge,Ballaghnatrillick Bridge,25,,54.4033333,-8.4041667
ie,ballahantouragh,Ballahantouragh,11,,52.146111100000006,-9.3755556
ie,ballakelly cross roads,Ballakelly Cross Roads,19,,53.9669444,-6.5716667
ie,ballallog,Ballallog,13,,52.4016667,-7.0569444
ie,ballard,Ballard,04,,52.2158333,-8.1886111
ie,ballard,Ballard,06,,54.8083333,-7.967222200000001
ie,ballard,Ballard,23,,53.2505556,-7.507222200000001
ie,ballard,Ballard,31,,52.9191667,-6.1219444
ie,ballardbeg,Ballardbeg,31,,53.00722220000001,-6.1561110999999995
ie,ballard cross roads,Ballard Cross Roads,31,,52.744722200000005,-6.563055599999999
ie,ballardiggan,Ballardiggan,10,,53.05472220000001,-8.75
ie,balleen bridge,Balleen Bridge,03,,52.8119444,-9.1430556
ie,balleese,Balleese,31,,52.9263889,-6.2091667
ie,balliahinch,Balliahinch,31,,53.0733333,-6.1652778
ie,balliarea cross,Balliarea Cross,04,,51.8333333,-8.4119444
ie,ballickmoyler,Ballickmoyler,15,,52.8769444,-7.0108333
ie,ballina,Ballina,20,10087.0,54.1166667,-9.166666699999999
ie,ballina,Ballina,26,,52.8077778,-8.435555599999999
ie,ballinaboy,Ballinaboy,10,,53.466666700000005,-10.016666699999998
ie,ballinabrackey,Ballinabrackey,21,,53.42,-7.133611099999999
ie,ballinaclash,Ballinaclash,31,,52.89972220000001,-6.2613889
ie,ballinaclogh,Ballinaclogh,31,,52.9594444,-6.0988889
ie,ballinaconbeg,Ballinaconbeg,31,,53.038611100000004,-6.2463889
ie,ballinacor,Ballinacor,31,,52.908333299999995,-6.1411111
ie,ballinacorbeg,Ballinacorbeg,31,,53.038611100000004,-6.2463889
ie,ballinacourty,Ballinacourty,27,,52.085,-7.566944400000001
ie,ballinacurra,Ballinacurra,04,,51.896111100000006,-8.165
ie,ballinadee,Ballinadee,04,,51.7127778,-8.6344444
ie,ballinafad,Ballinafad,24,,53.7333333,-8.0833333
ie,ballinafad,Ballinafad,25,,54.0275,-8.337222200000001
ie,ballinafunshoge,Ballinafunshoge,31,,52.9716667,-6.3925
ie,ballinagam cross roads,Ballinagam Cross Roads,30,,52.583611100000006,-6.226944400000001
ie,ballinagar,Ballinagar,23,,53.2644444,-7.335
ie,ballinagee bridge,Ballinagee Bridge,31,,53.059444400000004,-6.4566667
ie,ballinageeragh,Ballinageeragh,22,,54.105277799999996,-7.208611099999999
ie,ballinagh,Ballinagh,02,,53.9333333,-7.4166667
ie,ballinaglera,Ballinaglera,14,,54.1569444,-8.005
ie,ballinagleragh,Ballinagleragh,14,,54.1569444,-8.005
ie,ballinagore,Ballinagore,31,,52.80527779999999,-6.2969444
ie,ballinakill,Ballinakill,15,,52.8738889,-7.308055599999999
ie,ballinalack,Ballinalack,29,,53.6166667,-7.4666667
ie,ballinalea,Ballinalea,31,,53.003055599999996,-6.1088889
ie,ballinalee,Ballinalee,18,,53.7666667,-7.633333299999999
ie,ballinaleucra,Ballinaleucra,27,,52.2027778,-8.1080556
ie,ballinameen,Ballinameen,24,,53.9,-8.3
ie,ballinamore,Ballinamore,10,,53.4833333,-8.3666667
ie,ballinamore,Ballinamore,14,,54.05,-7.8
ie,ballinamore bridge,Ballinamore Bridge,10,,53.4833333,-8.3666667
ie,ballinamuck,Ballinamuck,18,,53.8666667,-7.7166667
ie,ballinamult,Ballinamult,27,,52.211111100000004,-7.7366667
ie,ballinapark,Ballinapark,20,,54.3108333,-9.5705556
ie,ballinard cross,Ballinard Cross,26,,52.4905556,-8.2686111
ie,ballinascarthy,Ballinascarthy,04,,51.6722222,-8.9052778
ie,ballinascarty,Ballinascarty,04,,51.6722222,-8.9052778
ie,ballinasloe,Ballinasloe,10,6388.0,53.3275,-8.2194444
ie,ballinaspig,Ballinaspig,04,,51.8772222,-8.535277800000001
ie,ballinclashet,Ballinclashet,04,,51.7183333,-8.451666699999999
ie,ballincloher,Ballincloher,11,,52.3888889,-9.685
ie,ballincloher cross roads,Ballincloher Cross Roads,11,,52.3888889,-9.685
ie,ballincollig,Ballincollig,04,,51.8833333,-8.583333300000001
ie,ballincor,Ballincor,23,,53.0205556,-7.9416667
ie,ballincourlea,Ballincourlea,04,,51.8822222,-8.0205556
ie,ballincrea,Ballincrea,13,,52.3183333,-7.0880556
ie,ballincrick,Ballincrick,06,,54.8655556,-8.362222200000001
ie,ballincrossig cross roads,Ballincrossig Cross Roads,11,,52.4166667,-9.6875
ie,ballincur,Ballincur,23,,53.276944400000005,-7.6619444
ie,ballincurra,Ballincurra,13,,52.3,-7.2283333
ie,ballincurra bridge,Ballincurra Bridge,16,,52.3933333,-8.5022222
ie,ballincurrig,Ballincurrig,04,,51.9872222,-8.227777799999998
ie,ballincurry,Ballincurry,26,,52.58472220000001,-7.603611099999999
ie,ballindaggan,Ballindaggan,30,,52.565,-6.6741667
ie,ballindangan,Ballindangan,04,,52.234444399999994,-8.3316667
ie,ballindangan,Ballindangan,20,,53.6666667,-8.9666667
ie,ballindeenisk cross roads,Ballindeenisk Cross Roads,04,,51.9936111,-8.394722199999999
ie,ballinderreen,Ballinderreen,10,,53.1863889,-8.906388900000001
ie,ballinderry,Ballinderry,26,,53.0205556,-8.2219444
ie,ballinderry,Ballinderry,31,,52.946388899999995,-6.2772222
ie,ballindillanig,Ballindillanig,04,,52.2761111,-8.7175
ie,ballindine,Ballindine,20,,53.6666667,-8.9666667
ie,ballindooly,Ballindooly,10,,53.31222220000001,-9.0219444
ie,ballindrait,Ballindrait,06,,54.8441667,-7.5258332999999995
ie,ballindrum,Ballindrum,12,,53.0161111,-6.8894444
ie,ballinduff,Ballinduff,10,,53.125,-8.806388900000002
ie,ballineadig,Ballineadig,04,,51.8855556,-8.7097222
ie,ballineanig,Ballineanig,11,,52.1625,-10.3936111
ie,ballineen,Ballineen,04,,51.7369444,-8.956944400000001
ie,ballinfoyle,Ballinfoyle,31,,52.9508333,-6.5308333
ie,ballinfulla,Ballinfulla,15,,53.1575,-7.5919444
ie,ballingaddy south,Ballingaddy South,16,,52.3794444,-8.5613889
ie,ballingarrane,Ballingarrane,16,,52.5486111,-8.9369444
ie,ballingarry,Ballingarry,04,,51.7455556,-8.4397222
ie,ballingarry,Ballingarry,16,,52.472777799999996,-8.863888900000001
ie,ballingarry,Ballingarry,26,,52.58722220000001,-7.54
ie,ballingarry bridge,Ballingarry Bridge,26,,52.5933333,-7.5625
ie,ballingary,Ballingary,16,,52.472777799999996,-8.863888900000001
ie,ballingate bridge,Ballingate Bridge,31,,52.716666700000005,-6.5516667
ie,ballingeary,Ballingeary,04,,51.85,-9.233333300000002
ie,ballinglanna,Ballinglanna,04,,51.9161111,-8.3866667
ie,ballinglen,Ballinglen,20,,54.2575,-9.3844444
ie,ballingrane,Ballingrane,16,,52.5486111,-8.9369444
ie,ballinguile,Ballinguile,31,,52.921111100000005,-6.5122222
ie,ballingurteen,Ballingurteen,04,,51.6666667,-9.016666699999998
ie,ballinhassig,Ballinhassig,04,,51.8141667,-8.5369444
ie,ballinillann,Ballinillann,10,,53.248611100000005,-8.8422222
ie,ballinkillin,Ballinkillin,01,,52.6491667,-6.927222200000001
ie,ballinknockane,Ballinknockane,11,,52.2352778,-10.3005556
ie,ballinla,Ballinla,04,,52.2922222,-8.855555599999999
ie,ballinlaght,Ballinlaght,06,,54.9213889,-7.9208333
ie,ballinleeny,Ballinleeny,16,,52.4536111,-8.7430556
ie,ballinlegane cross roads,Ballinlegane Cross Roads,04,,51.9872222,-8.362222200000001
ie,ballinlena,Ballinlena,20,,54.2713889,-9.2255556
ie,ballinloghig,Ballinloghig,11,,52.2022222,-10.3075
ie,ballinlough,Ballinlough,10,,53.0666667,-8.45
ie,ballinlough,Ballinlough,24,,53.7333333,-8.633333300000002
ie,ballinlug,Ballinlug,10,,53.160555599999995,-8.2241667
ie,ballinluggaun,Ballinluggaun,10,,53.24722220000001,-9.417777800000001
ie,ballinluska,Ballinluska,04,,51.7897222,-8.2941667
ie,ballinorig,Ballinorig,11,,52.2725,-9.6619444
ie,ballinoroher,Ballinoroher,04,,51.646666700000004,-8.8347222
ie,ballinphull,Ballinphull,25,,54.1091667,-8.316111099999999
ie,ballin prior,Ballin Prior,11,,52.35,-9.816666699999999
ie,ballinrally,Ballinrally,15,,52.9961111,-7.6394444
ie,ballinrannig,Ballinrannig,11,,52.175,-10.409166699999998
ie,ballinrobe,Ballinrobe,20,1707.0,53.6333333,-9.233333300000002
ie,ballinrolla,Ballinrolla,11,,52.16861110000001,-10.445277800000001
ie,ballinrostig,Ballinrostig,04,,51.8208333,-8.1844444
ie,ballinruan,Ballinruan,03,,52.9530556,-8.826111099999999
ie,ballinruan cross roads,Ballinruan Cross Roads,30,,52.2069444,-6.8908333
ie,ballinskelligs,Ballinskelligs,11,,51.8,-10.2833333
ie,ballinspittle,Ballinspittle,04,,51.667777799999996,-8.6002778
ie,ballintaggart,Ballintaggart,15,,52.9383333,-7.680277799999999
ie,ballintaylor,Ballintaylor,27,,52.0791667,-7.7391667
ie,ballintaylor lower,Ballintaylor Lower,27,,52.0791667,-7.7391667
ie,ballinteemore,Ballinteemore,10,,53.239444400000004,-9.423888900000001
ie,ballinteer,Ballinteer,07,,53.28277779999999,-6.2708333
ie,ballintemple,Ballintemple,04,,51.893055600000004,-8.4352778
ie,ballinteskin,Ballinteskin,15,,52.9883333,-7.1541667
ie,ballinteskin,Ballinteskin,19,,54.0755556,-6.2555556
ie,ballinteskin cross roads,Ballinteskin Cross Roads,31,,52.9425,-6.075
ie,ballintlea,Ballintlea,15,,52.9905556,-7.1225
ie,ballintlea,Ballintlea,30,,52.3172222,-6.6
ie,ballintlea bridge,Ballintlea Bridge,04,,52.2672222,-8.51
ie,ballintober,Ballintober,10,,53.716666700000005,-8.416666699999999
ie,ballintober,Ballintober,20,,53.7333333,-9.3
ie,ballintober,Ballintober,31,,53.0988889,-6.572222200000001
ie,ballintogher,Ballintogher,25,,54.2,-8.3666667
ie,ballintombay,Ballintombay,31,,52.9166667,-6.2833333
ie,ballintonbay,Ballintonbay,31,,52.9166667,-6.2833333
ie,ballintotes,Ballintotes,04,,51.9075,-8.0991667
ie,ballintra,Ballintra,06,,54.5769444,-8.1197222
ie,ballintroohan,Ballintroohan,06,,55.2563889,-7.0255556
ie,ballintubber,Ballintubber,20,,53.7333333,-9.3
ie,ballintubbert,Ballintubbert,15,,52.9813889,-7.0894444000000005
ie,ballinunty,Ballinunty,26,,52.590277799999996,-7.665
ie,ballinure,Ballinure,04,,51.8888889,-8.4041667
ie,ballinure,Ballinure,26,,52.5630556,-7.768888900000001
ie,ballinville,Ballinville,20,,53.876388899999995,-9.249722199999999
ie,ballinvinny north,Ballinvinny North,04,,51.9805556,-8.3758333
ie,ballinvinny south,Ballinvinny South,04,,51.963333299999995,-8.3816667
ie,ballinvreena,Ballinvreena,16,,52.396111100000006,-8.4255556
ie,ballinvronig,Ballinvronig,04,,51.6825,-8.648888900000001
ie,ballinvuskig,Ballinvuskig,04,,52.101944399999994,-8.6019444
ie,ballinwillin,Ballinwillin,04,,52.0375,-8.2569444
ie,ballinwing,Ballinwing,14,,53.9941667,-8.0319444
ie,balliny,Balliny,03,,53.086111100000004,-9.285277800000001
ie,ballisk,Ballisk,07,,53.49,-6.1488889
ie,ballitore,Ballitore,12,,53.0069444,-6.8194444
ie,ballivor,Ballivor,21,,53.5316667,-6.961111099999999
ie,balloghure,Balloghure,06,,54.5561111,-8.1391667
ie,ballon,Ballon,01,,52.7405556,-6.767777799999999
ie,balloor,Balloor,06,,55.2686111,-7.6525
ie,balloor,Balloor,14,,54.44,-8.381111099999998
ie,balloor,Balloor,20,,53.868333299999996,-9.158055599999999
ie,ballough,Ballough,07,,53.535277799999996,-6.1963889000000005
ie,balloughter,Balloughter,30,,52.6166667,-6.3577778
ie,ballsbridge,Ballsbridge,07,,53.33027779999999,-6.2305556
ie,ballure,Ballure,06,,54.52527779999999,-8.2341667
ie,ballure,Ballure,25,,54.269722200000004,-8.3980556
ie,ballyadam,Ballyadam,12,,53.03611110000001,-6.891388900000001
ie,ballyadam cross roads,Ballyadam Cross Roads,27,,52.1566667,-7.2352777999999995
ie,ballyadams,Ballyadams,15,,52.9641667,-7.0816667
ie,ballyagran,Ballyagran,16,,52.40138889999999,-8.785833300000002
ie,ballyandreen,Ballyandreen,04,,51.8216667,-8.052222200000001
ie,ballyandrew cross roads,Ballyandrew Cross Roads,30,,52.6255556,-6.5222222
ie,ballyanne,Ballyanne,30,,52.425277799999996,-6.915555599999999
ie,ballyard cross roads,Ballyard Cross Roads,04,,52.0327778,-8.198611099999999
ie,ballyargus,Ballyargus,06,,55.1666667,-7.1666667
ie,ballyarrell,Ballyarrell,06,,54.790833299999996,-7.6575
ie,ballyartello bridge,Ballyartello Bridge,26,,52.9011111,-8.236111099999999
ie,ballybaan,Ballybaan,10,,53.28611110000001,-9.0075
ie,ballybackagh,Ballybackagh,10,,53.334166700000004,-8.8147222
ie,ballybane,Ballybane,06,,55.25,-7.0055556
ie,ballybane,Ballybane,11,,52.158333299999995,-9.5788889
ie,ballybarney,Ballybarney,12,,53.059444400000004,-6.8244444
ie,ballybaun,Ballybaun,10,,53.4191667,-8.3716667
ie,ballybaun,Ballybaun,30,,52.4413889,-6.4230556
ie,ballybawn,Ballybawn,06,,54.9905556,-7.5869444
ie,ballybay,Ballybay,22,,54.1261111,-6.9005556
ie,ballybay,Ballybay,24,,53.466666700000005,-8.0
ie,ballybay cross roads,Ballybay Cross Roads,22,,54.021111100000006,-6.7830556
ie,ballybeg,Ballybeg,25,,54.3180556,-8.541666699999999
ie,ballybeg cross roads,Ballybeg Cross Roads,11,,52.2575,-9.620833300000001
ie,ballybegly,Ballybegly,06,,54.9905556,-7.5869444
ie,ballybinaby,Ballybinaby,19,,54.050277799999996,-6.5313889000000005
ie,ballybit cross roads,Ballybit Cross Roads,01,,52.8483333,-6.709444400000001
ie,ballyboden,Ballyboden,07,,53.2805556,-6.316388900000001
ie,ballyboe,Ballyboe,06,,55.11,-7.660277799999999
ie,ballybofey,Ballybofey,06,3848.0,54.8,-7.7833333
ie,ballyboggan,Ballyboggan,10,,53.3144444,-8.6802778
ie,ballyboggan bridge,Ballyboggan Bridge,12,,53.4113889,-7.0419444
ie,ballyboghil,Ballyboghil,07,,53.52527779999999,-6.2625
ie,ballyboghill,Ballyboghill,07,,53.52527779999999,-6.2625
ie,ballyboughal,Ballyboughal,07,,53.52527779999999,-6.2625
ie,ballyboy,Ballyboy,23,,53.1730556,-7.696111099999999
ie,ballyboyle,Ballyboyle,06,,54.6416667,-8.1441667
ie,ballybrack,Ballybrack,04,,51.4991667,-9.6130556
ie,ballybrack,Ballybrack,07,,53.254444400000004,-6.1477778
ie,ballybrack,Ballybrack,11,,52.1333333,-9.583333300000001
ie,ballybrack,Ballybrack,12,,53.37527779999999,-6.710277799999999
ie,ballybraher,Ballybraher,04,,51.8352778,-8.0361111
ie,ballybraid,Ballybraid,31,,52.97027779999999,-6.3427777999999995
ie,ballybranagan,Ballybranagan,04,,51.8116667,-8.1466667
ie,ballybranagh,Ballybranagh,20,,54.0886111,-9.3877778
ie,ballybrew,Ballybrew,31,,53.2033333,-6.1994444
ie,ballybrin,Ballybrin,23,,53.005,-7.796388900000001
ie,ballybrit,Ballybrit,10,,53.2969444,-8.993611099999999
ie,ballybrittan,Ballybrittan,23,,53.3433333,-7.1355556
ie,ballybrittas,Ballybrittas,15,,53.1094444,-7.1375
ie,ballybrood,Ballybrood,16,,52.55972220000001,-8.4463889
ie,ballybrophy,Ballybrophy,15,,52.8994444,-7.6025
ie,ballybrophy junction,Ballybrophy Junction,15,,52.8994444,-7.6025
ie,ballybrowney mountain,Ballybrowney Mountain,04,,52.078888899999995,-8.3405556
ie,ballybryan,Ballybryan,23,,53.3591667,-7.148888900000001
ie,ballybuck,Ballybuck,10,,53.1075,-8.9030556
ie,ballybun,Ballybun,06,,54.781111100000004,-7.6102777999999995
ie,ballybunnion,Ballybunnion,11,,52.509722200000006,-9.6716667
ie,ballycahall,Ballycahall,26,,52.8275,-7.817777799999999
ie,ballycahill,Ballycahill,26,,52.6894444,-7.904722200000001
ie,ballycallan,Ballycallan,13,,52.62222220000001,-7.3630556
ie,ballycanew,Ballycanew,30,,52.6088889,-6.3030555999999995
ie,ballycapple,Ballycapple,31,,52.9,-6.133333299999999
ie,ballycarick bridge,Ballycarick Bridge,03,,52.736388899999994,-9.0608333
ie,ballycarnan,Ballycarnan,15,,52.9983333,-7.303888900000001
ie,ballycarney,Ballycarney,30,,52.5805556,-6.5680556
ie,ballycarra,Ballycarra,20,,53.8,-9.2166667
ie,ballycashin,Ballycashin,27,,52.2238889,-7.1658333
ie,ballycastle,Ballycastle,20,,54.283333299999995,-9.366666699999998
ie,ballyclare bridge,Ballyclare Bridge,15,,53.181388899999995,-7.4225
ie,ballyclerahan,Ballyclerahan,26,,52.4147222,-7.770277799999999
ie,ballyclery,Ballyclery,10,,53.15527779999999,-8.91
ie,ballyclider,Ballyclider,15,,53.033888899999994,-7.257222200000001
ie,ballyclogh,Ballyclogh,04,,52.1666667,-8.733333300000002
ie,ballycolla,Ballycolla,15,,52.88277779999999,-7.447222200000001
ie,ballycollin,Ballycollin,23,,53.16111110000001,-7.7208333
ie,ballycommon,Ballycommon,23,,53.29361110000001,-7.3633333
ie,ballyconneely,Ballyconneely,10,,53.4333333,-10.066666699999999
ie,ballyconnel,Ballyconnel,25,,54.363055599999996,-8.651666699999998
ie,ballyconnell,Ballyconnell,02,,54.1166667,-7.5833333
ie,ballyconnell,Ballyconnell,25,,54.363055599999996,-8.651666699999998
ie,ballyconra,Ballyconra,13,,52.8038889,-7.353611099999999
ie,ballyconry,Ballyconry,03,,53.1216667,-9.1819444
ie,ballycoolan,Ballycoolan,15,,52.9755556,-7.158611099999999
ie,ballycorden,Ballycorden,07,,53.409722200000004,-6.3680556
ie,ballycorus,Ballycorus,07,,53.23222220000001,-6.1672222
ie,ballycottin,Ballycottin,04,,51.8333333,-8.0161111
ie,ballycotton,Ballycotton,04,,51.8333333,-8.0161111
ie,ballycowan bridge,Ballycowan Bridge,23,,53.27527779999999,-7.552222200000001
ie,ballycoyle,Ballycoyle,31,,53.1819444,-6.268611099999999
ie,ballycramey,Ballycramey,06,,55.3116667,-7.3116667
ie,ballycrinnigan,Ballycrinnigan,01,,52.505277799999995,-6.876111099999999
ie,ballycrissan,Ballycrissan,10,,53.146666700000004,-8.193611099999998
ie,ballycrissane,Ballycrissane,10,,53.146666700000004,-8.193611099999998
ie,ballycroneen,Ballycroneen,04,,51.8083333,-8.1083333
ie,ballycrossal,Ballycrossal,15,,53.121944400000004,-7.233611099999999
ie,ballycrossaon,Ballycrossaon,10,,53.146666700000004,-8.193611099999998
ie,ballycrossaun,Ballycrossaun,10,,53.146666700000004,-8.193611099999998
ie,ballycrovane,Ballycrovane,04,,51.716666700000005,-9.95
ie,ballycroy,Ballycroy,20,,54.023611100000004,-9.826388900000001
ie,ballycuddahy,Ballycuddahy,15,,52.91972220000001,-7.474722200000001
ie,ballycullane,Ballycullane,12,,52.985833299999996,-6.9158333
ie,ballycullane,Ballycullane,16,,52.415,-8.5805556
ie,ballycullane,Ballycullane,27,,52.065,-7.698611099999999
ie,ballycullane,Ballycullane,30,,52.27444439999999,-6.830277799999999
ie,ballycullen,Ballycullen,31,,53.0038889,-6.2005555999999995
ie,ballycumber,Ballycumber,23,,53.324444400000004,-7.682777799999999
ie,ballycurragh bridge,Ballycurragh Bridge,31,,52.8841667,-6.4041667
ie,ballycurrane,Ballycurrane,27,,52.0133333,-7.78
ie,ballycurrane cross roads,Ballycurrane Cross Roads,27,,52.008055600000006,-7.7741667
ie,ballycurreen south,Ballycurreen South,27,,52.0138889,-7.595
ie,ballycurrin,Ballycurrin,13,,52.396111100000006,-7.0425
ie,ballydagan,Ballydagan,24,,53.345,-8.09
ie,ballydague,Ballydague,04,,52.1291667,-8.451666699999999
ie,ballydaly,Ballydaly,23,,53.2775,-7.7766667
ie,ballydane,Ballydane,30,,52.65,-6.25
ie,ballydangan,Ballydangan,24,,53.345,-8.09
ie,ballydavid,Ballydavid,10,,53.2013889,-8.4672222
ie,ballydavid,Ballydavid,11,,52.1905556,-10.38
ie,ballydavis,Ballydavis,15,,53.04722220000001,-7.245555599999999
ie,ballydehob,Ballydehob,04,,51.55,-9.4666667
ie,ballyderlan,Ballyderlan,06,,54.6041667,-8.3791667
ie,ballydesmond,Ballydesmond,04,,52.1833333,-9.233333300000002
ie,ballydevill,Ballydevill,06,,54.6694444,-8.1455556
ie,ballydine,Ballydine,26,,52.3666667,-7.5094444000000005
ie,ballydine cross roads,Ballydine Cross Roads,26,,52.3666667,-7.5094444000000005
ie,ballydivin,Ballydivin,04,,51.5008333,-9.708611099999999
ie,ballydonagh,Ballydonagh,10,,53.238055599999996,-8.234444400000001
ie,ballydonagh cross roads,Ballydonagh Cross Roads,27,,52.292777799999996,-7.773888900000001
ie,ballydonaghy cross roads,Ballydonaghy Cross Roads,04,,51.7444444,-8.6102778
ie,ballydonegan,Ballydonegan,04,,51.6355556,-10.055
ie,ballydoogan,Ballydoogan,10,,53.1911111,-8.4780556
ie,ballydooley,Ballydooley,24,,53.6666667,-8.3333333
ie,ballydowling,Ballydowling,31,,52.9213889,-6.080555599999999
ie,ballydoyle,Ballydoyle,04,,52.1947222,-8.4502778
ie,ballydrenid,Ballydrenid,25,,54.221388899999994,-8.499722199999999
ie,ballyduff,Ballyduff,11,,52.224166700000005,-10.1397222
ie,ballyduff,Ballyduff,15,,53.0616667,-7.161388900000001
ie,ballyduff,Ballyduff,23,,53.2461111,-7.292777799999999
ie,ballyduff,Ballyduff,27,,52.146666700000004,-8.0536111
ie,ballyduff bridge,Ballyduff Bridge,31,,52.792777799999996,-6.1875
ie,ballyduff cross roads,Ballyduff Cross Roads,31,,53.0441667,-6.16
ie,ballyduffy,Ballyduffy,20,,54.0416667,-9.3411111
ie,ballydurn,Ballydurn,27,,52.2483333,-7.3975
ie,ballydurn cross roads,Ballydurn Cross Roads,27,,52.2483333,-7.3975
ie,ballyduvane,Ballyduvane,04,,51.616944399999994,-8.9402778
ie,ballyea,Ballyea,03,,52.91111110000001,-9.2138889
ie,ballyearn,Ballyearn,21,,53.4166667,-6.810277799999999
ie,ballyeden bridge,Ballyeden Bridge,30,,52.443611100000005,-6.6738889000000015
ie,ballyederlan,Ballyederlan,06,,54.6041667,-8.3791667
ie,ballyeighan,Ballyeighan,23,,53.0494444,-7.907777799999999
ie,ballyeighter,Ballyeighter,10,,53.16111110000001,-8.5277778
ie,ballyell,Ballyell,30,,52.2322222,-6.3683333
ie,ballyellin cross roads,Ballyellin Cross Roads,01,,52.6297222,-6.981944400000001
ie,ballyellis cross roads,Ballyellis Cross Roads,31,,52.711111100000004,-6.4702778
ie,ballyelly,Ballyelly,03,,53.0955556,-9.2705556
ie,ballyenaghey,Ballyenaghey,11,,52.2775,-9.7372222
ie,ballyengland,Ballyengland,16,,52.605277799999996,-8.960833300000001
ie,ballyfad,Ballyfad,30,,52.7655556,-6.2672222
ie,ballyfadd,Ballyfadd,30,,52.7655556,-6.2672222
ie,ballyfahy,Ballyfahy,25,,54.043055599999995,-8.5844444
ie,ballyfanoher,Ballyfanoher,20,,54.3,-9.4
ie,ballyfarnan,Ballyfarnan,24,,54.0680556,-8.1994444
ie,ballyfarnon,Ballyfarnon,24,,54.0680556,-8.1994444
ie,ballyfarrell,Ballyfarrell,23,,53.23527779999999,-7.643055599999999
ie,ballyfauskeen cross roads,Ballyfauskeen Cross Roads,16,,52.3616667,-8.3091667
ie,ballyfeard,Ballyfeard,04,,51.7552778,-8.4375
ie,ballyfermot,Ballyfermot,07,,53.34527779999999,-6.3588889
ie,ballyferriter,Ballyferriter,11,,52.1666667,-10.416666699999999
ie,ballyfinnane bridge,Ballyfinnane Bridge,04,,51.9172222,-9.2486111
ie,ballyfolan,Ballyfolan,31,,53.21027779999999,-6.4319444
ie,ballyfore,Ballyfore,23,,53.321388899999995,-7.117777799999999
ie,ballyfowloo,Ballyfowloo,26,,52.5033333,-7.8383332999999995
ie,ballyfoyle,Ballyfoyle,04,,51.7416667,-8.3644444
ie,ballyfoyle,Ballyfoyle,13,,52.72361110000001,-7.230277799999999
ie,ballyfoyle,Ballyfoyle,15,,52.91472220000001,-6.9408332999999995
ie,ballyfraley bridge,Ballyfraley Bridge,16,,52.463333299999995,-9.0302778
ie,ballygaddy cross roads,Ballygaddy Cross Roads,23,,53.0405556,-7.806388900000001
ie,ballygamboore upper,Ballygamboore Upper,11,,52.2002778,-9.6713889
ie,ballygannon,Ballygannon,31,,53.1163889,-6.0691667
ie,ballygar,Ballygar,10,,53.5166667,-8.3166667
ie,ballygarett,Ballygarett,30,,52.5725,-6.2261111
ie,ballygarrett,Ballygarrett,30,,52.5725,-6.2261111
ie,ballygarries,Ballygarries,20,,53.6833333,-9.183333300000001
ie,ballygarriff,Ballygarriff,10,,53.235833299999996,-8.8155556
ie,ballygarriff,Ballygarriff,20,,53.9241667,-9.195277800000001
ie,ballygarris,Ballygarris,20,,53.6833333,-9.183333300000001
ie,ballygarvan,Ballygarvan,04,,51.8275,-8.4638889
ie,ballygarvan bridge,Ballygarvan Bridge,30,,52.3133333,-6.8319444
ie,ballygarvey,Ballygarvey,30,,52.2488889,-6.4011111
ie,ballygastell,Ballygastell,03,,53.033333299999995,-9.2475
ie,ballygawley,Ballygawley,25,,54.1922222,-8.4463889
ie,ballygeale,Ballygeale,16,,52.567777799999995,-8.7202778
ie,ballygerry,Ballygerry,30,,52.2458333,-6.3472222
ie,ballygillistown,Ballygillistown,30,,52.476388899999996,-6.6180556
ie,ballyglass,Ballyglass,10,,53.332777799999995,-8.4211111
ie,ballyglass,Ballyglass,20,,53.7333333,-9.166666699999999
ie,ballyglass,Ballyglass,25,,53.9913889,-8.7897222
ie,ballygodboy,Ballygodboy,26,,52.5033333,-8.237222200000001
ie,ballygommon,Ballygommon,20,,53.8758333,-9.160277800000001
ie,ballygorey,Ballygorey,13,,52.2658333,-7.2305556
ie,ballygorman,Ballygorman,06,,55.3575,-7.3116667
ie,ballygorteen,Ballygorteen,13,,52.71388889999999,-7.0880556
ie,ballygortin,Ballygortin,30,,52.5283333,-6.3094444
ie,ballygow,Ballygow,30,,52.2077778,-6.8719444
ie,ballygrady,Ballygrady,04,,52.216666700000005,-8.816666699999999
ie,ballygriffen,Ballygriffen,26,,52.5144444,-7.987777799999999
ie,ballygriffin,Ballygriffin,04,,52.15555560000001,-8.5125
ie,ballygriffin,Ballygriffin,26,,52.5144444,-7.987777799999999
ie,ballygub,Ballygub,13,,52.4794444,-6.9975
ie,ballyguile,Ballyguile,31,,52.958611100000006,-6.0538889000000005
ie,ballyguin,Ballyguin,20,,53.896666700000004,-9.205277800000001
ie,ballyhack,Ballyhack,30,,52.245,-6.9591667
ie,ballyhacket,Ballyhacket,01,,52.8638889,-6.752777799999999
ie,ballyhacket cross roads,Ballyhacket Cross Roads,01,,52.855277799999996,-6.741388900000001
ie,ballyhagan,Ballyhagan,12,,53.3413889,-6.978055599999999
ie,ballyhahill,Ballyhahill,11,,52.5591667,-9.1927778
ie,ballyhaise,Ballyhaise,02,,54.05,-7.3166667
ie,ballyhale,Ballyhale,13,,52.4680556,-7.196388900000001
ie,ballyhallan,Ballyhallan,06,,55.2594444,-7.4238889000000015
ie,ballyhall,Ballyhall,10,,53.6,-8.483333300000002
ie,ballyhander,Ballyhander,04,,51.6908333,-8.601666699999999
ie,ballyhane bridge,Ballyhane Bridge,26,,52.5688889,-8.2080556
ie,ballyhar,Ballyhar,11,,52.1166667,-9.566666699999999
ie,ballyhard,Ballyhard,10,,53.6,-8.483333300000002
ie,ballyhaunis,Ballyhaunis,20,1344.0,53.7666667,-8.766666699999998
ie,ballyhean,Ballyhean,20,,53.783333299999995,-9.316666699999999
ie,ballyhearin,Ballyhearin,06,,55.1969444,-7.725277799999999
ie,ballyheashill,Ballyheashill,23,,53.3694444,-7.15
ie,ballyheelan,Ballyheelan,02,,53.8333333,-7.35
ie,ballyheelna,Ballyheelna,02,,53.8333333,-7.35
ie,ballyhegbought,Ballyhegbought,11,,52.1669444,-10.2897222
ie,ballyhehan,Ballyhehan,03,,53.1030556,-9.0880556
ie,ballyheige,Ballyheige,11,,52.3833333,-9.833611099999999
ie,ballyheigue,Ballyheigue,11,,52.3833333,-9.833611099999999
ie,ballyhenebery,Ballyhenebery,13,,52.3761111,-7.3608332999999995
ie,ballyhenry,Ballyhenry,20,,53.55,-9.116666699999998
ie,ballyheny,Ballyheny,26,,52.900833299999995,-7.8175
ie,ballyhest cross roads,Ballyhest Cross Roads,27,,52.2891667,-7.4608333
ie,ballyhillin,Ballyhillin,06,,55.3769444,-7.370555599999999
ie,ballyhimmin,Ballyhimmin,13,,52.388611100000006,-7.2275
ie,ballyhitt,Ballyhitt,30,,52.2172222,-6.361388900000001
ie,ballyhook,Ballyhook,31,,52.9980556,-6.7141667
ie,ballyhoolahan,Ballyhoolahan,04,,52.15,-9.05
ie,ballyhooly,Ballyhooly,04,,52.14944439999999,-8.4005556
ie,ballyhoorisky,Ballyhoorisky,06,,55.245,-7.7425
ie,ballyhorahan,Ballyhorahan,15,,52.995,-7.556111099999999
ie,ballyhorgan east,Ballyhorgan East,11,,52.4175,-9.5655556
ie,ballyhoura,Ballyhoura,04,,52.2752778,-8.6477778
ie,ballyhugh,Ballyhugh,02,,54.085,-7.532777799999999
ie,ballyhugh,Ballyhugh,23,,53.30972220000001,-7.2344444
ie,ballyhunpahane,Ballyhunpahane,15,,53.0913889,-7.4783333
ie,ballyjamesduff,Ballyjamesduff,02,,53.865277799999994,-7.202777799999999
ie,ballykealy,Ballykealy,15,,52.8077778,-7.423611099999999
ie,ballykean,Ballykean,23,,53.2266667,-7.2916667
ie,ballykeefe cross roads,Ballykeefe Cross Roads,13,,52.6063889,-7.3875
ie,ballykeeran,Ballykeeran,29,,53.45,-7.883333299999999
ie,ballykelly cross roads,Ballykelly Cross Roads,12,,53.16277779999999,-7.040277799999999
ie,ballykenly bridge,Ballykenly Bridge,04,,52.21194439999999,-8.3519444
ie,ballykerin,Ballykerin,27,,52.15,-7.7
ie,ballykillaneer,Ballykillaneer,31,,52.8216667,-6.2777778
ie,ballykilleen,Ballykilleen,23,,53.29777779999999,-7.092222200000001
ie,ballykilleen cross roads,Ballykilleen Cross Roads,23,,53.3163889,-7.1075
ie,ballykilliane,Ballykilliane,30,,52.288611100000004,-6.4808333
ie,ballykilmurry bridge,Ballykilmurry Bridge,27,,52.1966667,-7.5494444000000005
ie,ballyknockan,Ballyknockan,31,,52.9133333,-6.2725
ie,ballyknock,Ballyknock,13,,52.417777799999996,-7.0033332999999995
ie,ballyknock,Ballyknock,20,,53.9608333,-9.3180556
ie,ballylaan,Ballylaan,03,,52.9466667,-9.458333300000001
ie,ballyla,Ballyla,30,,52.3677778,-6.427777799999999
ie,ballylaffin,Ballylaffin,31,,53.0319444,-6.7130556
ie,ballylaine cross roads,Ballylaine Cross Roads,26,,52.760555599999996,-8.0980556
ie,ballylanders,Ballylanders,16,,52.3725,-8.3458333
ie,ballylaneen,Ballylaneen,27,,52.1747222,-7.403888900000001
ie,ballylangley,Ballylangley,04,,51.7586111,-8.7094444
ie,ballylarkin bridge,Ballylarkin Bridge,30,,52.7488889,-6.2122222
ie,ballylassa,Ballylassa,20,,53.5833333,-9.166666699999999
ie,ballylaun,Ballylaun,03,,52.9466667,-9.458333300000001
ie,ballyleary,Ballyleary,04,,51.8630556,-8.3194444
ie,ballyleen,Ballyleen,27,,52.1791667,-7.3125
ie,ballylehane upper,Ballylehane Upper,15,,52.895277799999995,-7.1216667000000005
ie,ballylennan,Ballylennan,06,,54.888611100000006,-7.5175
ie,ballylennon cross roads,Ballylennon Cross Roads,01,,52.85222220000001,-6.874444400000001
ie,ballylevin,Ballylevin,23,,53.215,-7.3886110999999985
ie,ballyliffen,Ballyliffen,06,,55.283333299999995,-7.4
ie,ballyliffin,Ballyliffin,06,,55.283333299999995,-7.4
ie,ballylinch bridge,Ballylinch Bridge,13,,52.5433333,-7.1933333
ie,ballylinchy,Ballylinchy,04,,51.4833333,-9.35
ie,ballyline,Ballyline,13,,52.5738889,-7.4119444
ie,ballylongford,Ballylongford,11,,52.5458333,-9.474166699999998
ie,ballylooby,Ballylooby,26,,52.326944399999995,-7.978888900000001
ie,ballyloughan,Ballyloughan,06,,54.6336111,-8.408611099999998
ie,ballyloughaun,Ballyloughaun,10,,53.105277799999996,-8.8038889
ie,ballylow,Ballylow,31,,53.1538889,-6.4097222
ie,ballylucas,Ballylucas,30,,52.4369444,-6.4652778
ie,ballylug,Ballylug,31,,52.97722220000001,-6.2727778
ie,ballyluoge,Ballyluoge,10,,53.2555556,-8.346111099999998
ie,ballylusk,Ballylusk,31,,52.995555599999996,-6.1591667
ie,ballylusky,Ballylusky,11,,52.194166700000004,-10.3591667
ie,ballylusky,Ballylusky,13,,52.38444439999999,-7.166111099999999
ie,ballylusky,Ballylusky,26,,52.8255556,-8.289722200000002
ie,ballylynan,Ballylynan,15,,52.943611100000005,-7.042222200000001
ie,ballymacanaun,Ballymacanaun,03,,52.942777799999995,-9.451666699999999
ie,ballymacandrick,Ballymacandrick,04,,51.830555600000004,-8.1433333
ie,ballymacarbery,Ballymacarbery,27,,52.264444399999995,-7.744722200000001
ie,ballymacarbry,Ballymacarbry,27,,52.264444399999995,-7.744722200000001
ie,ballymacart bridge,Ballymacart Bridge,27,,51.9913889,-7.635
ie,ballymacask,Ballymacask,04,,51.959166700000004,-7.896944400000001
ie,ballymacaw,Ballymacaw,27,,52.14194439999999,-7.046388900000001
ie,ballymacelligott,Ballymacelligott,11,,52.25,-9.583333300000001
ie,ballymackesy house,Ballymackesy House,30,,52.458611100000006,-6.682777799999999
ie,ballymackey,Ballymackey,26,,52.878055599999996,-8.086388900000001
ie,ballymackney,Ballymackney,22,,53.9575,-6.6630556
ie,ballymacoda,Ballymacoda,04,,51.89,-7.9325
ie,ballymacoolaghan,Ballymacoolaghan,23,,53.1886111,-8.0408333
ie,ballymacprior,Ballymacprior,11,,52.1216667,-9.7725
ie,ballymacquin,Ballymacquin,11,,52.3694444,-9.816111099999999
ie,ballymacquin upper,Ballymacquin Upper,11,,52.3647222,-9.8205556
ie,ballymacredmona,Ballymacredmona,20,,54.0494444,-9.173888900000001
ie,ballymacredmond,Ballymacredmond,04,,51.5777778,-8.7494444
ie,ballymacrown,Ballymacrown,04,,51.487777799999996,-9.3480556
ie,ballymacward,Ballymacward,10,,53.379444400000004,-8.485
ie,ballymacwilliam,Ballymacwilliam,04,,51.6122222,-8.8558333
ie,ballymaddock,Ballymaddock,15,,53.03972220000001,-7.1925
ie,ballymadog,Ballymadog,04,,51.921111100000005,-7.9133333
ie,ballymagan,Ballymagan,06,,55.154166700000005,-7.4266667
ie,ballymagaraghy,Ballymagaraghy,06,,55.2675,-7.054166700000001
ie,ballymagauran,Ballymagauran,02,,54.0708333,-7.6797222000000005
ie,ballymagooly,Ballymagooly,04,,52.1333333,-8.6
ie,ballymahon,Ballymahon,18,,53.5666667,-7.7666667
ie,ballymakee cross roads,Ballymakee Cross Roads,27,,52.2827778,-7.7705556
ie,ballymakeera,Ballymakeera,04,,51.9333333,-9.133333300000002
ie,ballymakeery,Ballymakeery,04,,51.9333333,-9.133333300000002
ie,ballymakellelt,Ballymakellelt,19,,54.0416667,-6.3327778
ie,ballymakenny,Ballymakenny,19,,53.76888889999999,-6.3444444
ie,ballymalis bridge,Ballymalis Bridge,11,,52.0997222,-9.6802778
ie,ballyman,Ballyman,07,,53.4144444,-6.2652778
ie,ballymaquiff,Ballymaquiff,10,,53.13527779999999,-8.841944400000001
ie,ballymaquirk bridge,Ballymaquirk Bridge,04,,52.1352778,-8.8755556
ie,ballymareagh,Ballymareagh,04,,51.8733333,-7.9483333
ie,ballymartin,Ballymartin,01,,52.6291667,-6.9091667
ie,ballymartin,Ballymartin,13,,52.3925,-7.1066667
ie,ballymartin cross roads,Ballymartin Cross Roads,13,,52.819166700000004,-7.290277799999999
ie,ballymartin cross roads,Ballymartin Cross Roads,30,,52.393055600000004,-6.4333333
ie,ballymartle,Ballymartle,04,,51.7747222,-8.5269444
ie,ballymasare,Ballymasare,11,,52.296944399999994,-9.7586111
ie,ballymascanlan,Ballymascanlan,19,,54.0283333,-6.3508333
ie,ballymeen,Ballymeen,10,,53.09277779999999,-8.8019444
ie,ballymeeny,Ballymeeny,25,,54.2680556,-8.9036111
ie,bally m'elligott,Bally M'Elligott,11,,52.25,-9.583333300000001
ie,ballymiles bridge,Ballymiles Bridge,20,,53.9080556,-9.023888900000001
ie,ballymoe,Ballymoe,10,,53.7,-8.4666667
ie,ballymoghany,Ballymoghany,25,,54.1922222,-9.071666699999998
ie,ballymoneen,Ballymoneen,25,,54.1794444,-9.1
ie,ballymoney,Ballymoney,06,,55.03777779999999,-7.5069444
ie,ballymoney cross roads,Ballymoney Cross Roads,30,,52.6811111,-6.2188889000000005
ie,ballymoon,Ballymoon,01,,52.7008333,-6.9216667
ie,ballymore,Ballymore,04,,51.8622222,-8.2544444
ie,ballymore,Ballymore,06,,55.161666700000005,-7.920277799999999
ie,ballymore,Ballymore,10,,53.22777779999999,-8.7297222
ie,ballymore,Ballymore,11,,52.1269444,-10.3136111
ie,ballymore,Ballymore,29,,53.4833333,-7.6666667
ie,ballymore eustace,Ballymore Eustace,12,,53.1333333,-6.616666700000001
ie,ballymore lower,Ballymore Lower,06,,55.161666700000005,-7.920277799999999
ie,ballymorris,Ballymorris,15,,53.142222200000006,-7.222222200000001
ie,ballymorris,Ballymorris,27,,52.1772222,-7.2308333
ie,ballymote,Ballymote,25,,54.0833333,-8.516666699999998
ie,ballymount,Ballymount,07,,53.3136111,-6.3638889
ie,ballymount,Ballymount,12,,53.0525,-6.808055599999999
ie,ballymoyle,Ballymoyle,31,,52.8466667,-6.1377778
ie,ballymullen,Ballymullen,23,,53.3016667,-7.3155556
ie,ballymun,Ballymun,07,,53.3963889,-6.2827778
ie,ballymurn,Ballymurn,30,,52.4411111,-6.4747222
ie,ballymurphy,Ballymurphy,01,,52.573055599999996,-6.8616667
ie,ballymurry,Ballymurry,10,,53.255,-8.545833300000002
ie,ballynabanoge bridge,Ballynabanoge Bridge,16,,52.4755556,-8.701666699999999
ie,ballynabarna,Ballynabarna,29,,53.4141667,-7.633611099999999
ie,ballynabarny,Ballynabarny,31,,52.9766667,-6.1169444
ie,ballynabola,Ballynabola,30,,52.3666667,-6.8333333
ie,ballynaboley cross roads,Ballynaboley Cross Roads,13,,52.60972220000001,-7.113888900000001
ie,ballynabranagh,Ballynabranagh,01,,52.5641667,-6.8244444
ie,ballynabucky,Ballynabucky,10,,53.2036111,-8.830277800000001
ie,ballynacallagh,Ballynacallagh,04,,51.60611110000001,-10.175
ie,ballynacally,Ballynacally,03,,52.7191667,-9.065833300000001
ie,ballynacargy,Ballynacargy,29,,53.5833333,-7.5333333
ie,ballynacarrick,Ballynacarrick,06,,54.86472220000001,-8.2766667
ie,ballynacarrick upper,Ballynacarrick Upper,12,,52.92722220000001,-6.8125
ie,ballynacarriga,Ballynacarriga,04,,51.71194439999999,-9.0405556
ie,ballynacarrigy,Ballynacarrigy,29,,53.5833333,-7.5333333
ie,ballynacarrow,Ballynacarrow,25,,54.135,-8.5613889
ie,ballynaclash,Ballynaclash,27,,52.0177778,-7.8525
ie,ballynaclogh,Ballynaclogh,26,,52.82722220000001,-8.1611111
ie,ballynaclogh,Ballynaclogh,27,,52.1847222,-7.1908332999999995
ie,ballynaclogh cross roads,Ballynaclogh Cross Roads,27,,52.1961111,-7.1875
ie,ballynacloghy,Ballynacloghy,10,,53.2225,-8.9672222
ie,ballynacole,Ballynacole,04,,51.9461111,-8.1116667
ie,ballynacorra,Ballynacorra,04,,51.896111100000006,-8.165
ie,ballynacoska,Ballynacoska,29,,53.41972220000001,-7.5119444
ie,ballynacourty,Ballynacourty,10,,53.221388899999994,-8.940833300000001
ie,ballynacourty,Ballynacourty,27,,52.085,-7.566944400000001
ie,ballynacrusha cross roads,Ballynacrusha Cross Roads,04,,51.8630556,-8.297777799999999
ie,ballynacurrig,Ballynacurrig,04,,51.896111100000006,-8.165
ie,ballynadrumny,Ballynadrumny,12,,53.424722200000005,-6.9569444
ie,ballynafulla,Ballynafulla,20,,54.019444400000005,-9.3955556
ie,ballynagall,Ballynagall,11,,52.1905556,-10.38
ie,ballynagarbry,Ballynagarbry,29,,53.40138889999999,-7.7355556
ie,ballynagaul,Ballynagaul,04,,51.974444399999996,-8.136388900000002
ie,ballynagaul,Ballynagaul,27,,52.0497222,-7.567222200000001
ie,ballynageragh,Ballynageragh,04,,52.2847222,-8.715
ie,ballynaglogh,Ballynaglogh,25,,54.0666667,-8.55
ie,ballynagoraher,Ballynagoraher,20,,53.985833299999996,-9.3677778
ie,ballynagore,Ballynagore,29,,53.405,-7.4641667
ie,ballynagrallagh,Ballynagrallagh,30,,52.3730556,-6.787777799999999
ie,ballynagree,Ballynagree,04,,51.9833333,-8.933333300000001
ie,ballynagussaun,Ballynagussaun,12,,53.0530556,-6.863611099999999
ie,ballynahaftina,Ballynahaftina,10,,53.45,-8.516666699999998
ie,ballynahaia,Ballynahaia,02,,54.0708333,-7.040555599999999
ie,ballynahallia,Ballynahallia,10,,53.3591667,-9.1575
ie,ballynahallia,Ballynahallia,11,,52.218888899999996,-9.416666699999999
ie,ballynahattina,Ballynahattina,10,,53.45,-8.516666699999998
ie,ballynahimmy,Ballynahimmy,15,,53.14,-7.602222200000001
ie,ballynahow,Ballynahow,11,,51.8547222,-10.3622222
ie,ballynahown,Ballynahown,03,,53.0658333,-9.3283333
ie,ballynahown,Ballynahown,10,,53.243888899999995,-9.5016667
ie,ballynahown,Ballynahown,29,,53.351111100000004,-7.846111099999999
ie,ballynahulla,Ballynahulla,11,,52.173888899999994,-9.2627778
ie,ballynakilla,Ballynakilla,04,,51.6455556,-9.858333300000002
ie,ballynakill,Ballynakill,01,,52.68027779999999,-6.8533333
ie,ballynakill,Ballynakill,10,,53.2061111,-8.0888889
ie,ballynakill,Ballynakill,15,,52.8805556,-7.0733333
ie,ballynakill,Ballynakill,23,,53.255277799999995,-7.2569444
ie,ballynakill,Ballynakill,24,,53.3666667,-7.9333333
ie,ballynakilly upper,Ballynakilly Upper,11,,52.027222200000004,-9.974722199999999
ie,ballynallon bridge,Ballynallon Bridge,02,,54.050277799999996,-7.2352777999999995
ie,ballynalty,Ballynalty,10,,53.5,-9.2
ie,ballynamanagh,Ballynamanagh,10,,53.2225,-8.928333300000002
ie,ballynamaul cross roads,Ballynamaul Cross Roads,04,,51.7672222,-8.5613889
ie,ballynameelagh,Ballynameelagh,06,,54.85,-7.9333333
ie,ballynameeltoge,Ballynameeltoge,14,,54.1166667,-7.9166667
ie,ballynameeltogue,Ballynameeltogue,14,,54.1166667,-7.9166667
ie,ballynamona,Ballynamona,04,,52.0833333,-8.633333300000002
ie,ballynamona,Ballynamona,10,,53.39027779999999,-8.2772222
ie,ballynamona,Ballynamona,13,,52.50777779999999,-7.1825
ie,ballynamona,Ballynamona,16,,52.498611100000005,-8.448611099999999
ie,ballynamona,Ballynamona,25,,54.20972220000001,-9.0269444
ie,ballynamona,Ballynamona,30,,52.3177778,-6.7958333
ie,ballynamought,Ballynamought,04,,51.77638889999999,-9.3102778
ie,ballynamrossagh,Ballynamrossagh,26,,52.434444400000004,-8.2555556
ie,ballynamuddagh,Ballynamuddagh,15,,52.9891667,-7.3775
ie,ballynamult,Ballynamult,27,,52.211111100000004,-7.7366667
ie,ballynana,Ballynana,11,,52.17,-10.3416667
ie,ballynaneashagh,Ballynaneashagh,27,,52.2425,-7.170555599999999
ie,ballynanty,Ballynanty,16,,52.4833333,-8.566666699999999
ie,ballynapierce bridge,Ballynapierce Bridge,30,,52.471944400000005,-6.5880556
ie,ballynare,Ballynare,21,,53.4230556,-6.574722200000001
ie,ballynare cross roads,Ballynare Cross Roads,21,,53.4230556,-6.574722200000001
ie,ballynarick,Ballynarick,20,,54.23527779999999,-9.214722199999999
ie,ballynasare,Ballynasare,11,,52.1411111,-10.1180556
ie,ballynascarty,Ballynascarty,04,,51.9338889,-8.096111099999998
ie,ballynashannagh,Ballynashannagh,06,,55.17972220000001,-7.6433333
ie,ballynashee,Ballynashee,25,,54.1,-8.2
ie,ballynaskreena,Ballynaskreena,11,,52.439722200000006,-9.760833300000002
ie,ballynasrah,Ballynasrah,23,,53.29027779999999,-7.5658332999999995
ie,ballynastangford,Ballynastangford,20,,53.75,-9.0333333
ie,ballynastrangford,Ballynastrangford,20,,53.75,-9.0333333
ie,ballynatona,Ballynatona,31,,53.1633333,-6.4233332999999995
ie,ballynatray commons,Ballynatray Commons,27,,52.027222200000004,-7.943888900000001
ie,ballynatrideen,Ballynatrideen,04,,52.311111100000005,-8.7044444
ie,ballynavar bridge,Ballynavar Bridge,04,,51.6163889,-8.978611099999998
ie,ballynaveen bridge,Ballynaveen Bridge,16,,52.4680556,-8.3977778
ie,ballynavenooragh,Ballynavenooragh,11,,52.2252778,-10.301111099999998
ie,ballynaworthra,Ballynaworthra,06,,55.1141667,-7.808888900000001
ie,ballyneale,Ballyneale,13,,52.4263889,-7.006111099999999
ie,ballynee,Ballynee,21,,53.8088889,-6.7569444
ie,ballyneen,Ballyneen,04,,51.7369444,-8.956944400000001
ie,ballyneety,Ballyneety,16,,52.5961111,-8.546944400000001
ie,ballyneety,Ballyneety,26,,52.3188889,-7.8541667
ie,ballyneil,Ballyneil,26,,52.3733333,-7.4894444
ie,ballyneill,Ballyneill,26,,52.3733333,-7.4894444
ie,ballynerrin,Ballynerrin,31,,53.1283333,-6.075
ie,ballynes,Ballynes,06,,55.142222200000006,-8.1155556
ie,ballyness,Ballyness,06,,55.142222200000006,-8.1155556
ie,ballynestragh,Ballynestragh,30,,52.7183333,-6.2841667
ie,ballynew,Ballynew,10,,53.2333333,-9.433333300000001
ie,ballynew,Ballynew,20,,53.865,-9.263888900000001
ie,ballynew bridge,Ballynew Bridge,03,,52.8616667,-9.353611099999998
ie,ballynoe,Ballynoe,04,,51.5533333,-8.912222199999999
ie,ballynoe,Ballynoe,10,,53.2361111,-8.3694444
ie,ballynoe,Ballynoe,27,,52.15,-8.0833333
ie,ballynoe bridge,Ballynoe Bridge,16,,52.4386111,-8.935555599999999
ie,ballynonty,Ballynonty,26,,52.590277799999996,-7.665
ie,ballynora,Ballynora,04,,51.8630556,-8.58
ie,ballynoran,Ballynoran,04,,52.3166667,-8.7
ie,ballyoliver,Ballyoliver,01,,52.86777779999999,-6.7005555999999995
ie,ballyonen,Ballyonen,19,,54.0680556,-6.2430556
ie,ballyorgan,Ballyorgan,16,,52.3147222,-8.4677778
ie,ballyorney,Ballyorney,31,,53.1719444,-6.1747222
ie,ballyoughiera,Ballyoughiera,04,,51.5133333,-9.3055556
ie,ballyoughna cross roads,Ballyoughna Cross Roads,30,,52.5688889,-6.2722222
ie,ballyoughteragh,Ballyoughteragh,11,,52.178611100000005,-10.448611099999999
ie,ballyoughter bridge,Ballyoughter Bridge,26,,52.6591667,-7.9408332999999995
ie,ballyowen,Ballyowen,30,,52.27,-6.7577777999999995
ie,ballypatrick,Ballypatrick,26,,52.3936111,-7.5458333
ie,ballyphilip,Ballyphilip,27,,52.054444399999994,-7.875
ie,ballypickas,Ballypickas,15,,52.903055599999995,-7.2966667
ie,ballyporeen,Ballyporeen,26,,52.2691667,-8.100277799999999
ie,ballyquin,Ballyquin,11,,52.26,-10.162222199999999
ie,ballyquin,Ballyquin,13,,52.3694444,-7.1283332999999995
ie,ballyragget,Ballyragget,13,,52.788888899999996,-7.330277799999999
ie,ballyrannel,Ballyrannel,30,,52.45527779999999,-6.5125
ie,ballyre,Ballyre,04,,51.9952778,-8.0363889
ie,ballyrechan bridge,Ballyrechan Bridge,11,,52.3827778,-9.5894444
ie,ballyreddy,Ballyreddy,13,,52.406111100000004,-7.0155556
ie,ballyroan,Ballyroan,15,,52.9455556,-7.304166700000001
ie,ballyroe,Ballyroe,12,,53.0205556,-7.052222200000001
ie,ballyroe,Ballyroe,30,,52.435277799999994,-6.3916667
ie,ballyroe cross roads,Ballyroe Cross Roads,12,,52.9588889,-6.937222200000001
ie,ballyroon,Ballyroon,04,,51.561944399999994,-9.781388900000001
ie,ballyruin,Ballyruin,15,,52.9608333,-7.3133333
ie,ballyrush,Ballyrush,22,,54.012222200000004,-6.5883332999999995
ie,ballyrvan,Ballyrvan,01,,52.760555599999996,-6.9069444
ie,ballysadare,Ballysadare,25,,54.2116667,-8.5094444
ie,ballysakeery,Ballysakeery,20,,54.18472220000001,-9.1802778
ie,ballyshane,Ballyshane,23,,53.08722220000001,-7.755277799999999
ie,ballyshannon,Ballyshannon,06,2683.0,54.5,-8.1833333
ie,ballyshanock,Ballyshanock,04,,52.256111100000005,-8.471666699999998
ie,ballyshear,Ballyshear,23,,53.1913889,-7.277777799999999
ie,ballysheeda,Ballysheeda,26,,52.5755556,-8.1066667
ie,ballysheedy,Ballysheedy,16,,52.6286111,-8.635
ie,ballysheemen,Ballysheemen,31,,52.9544444,-6.2683333
ie,ballysheen,Ballysheen,11,,52.3583333,-9.7105556
ie,ballysheen,Ballysheen,30,,52.1961111,-6.3675
ie,ballyshoneen,Ballyshoneen,04,,51.95,-8.683333300000001
ie,ballyshrule,Ballyshrule,10,,53.1036111,-8.306388900000002
ie,ballysimon cross roads,Ballysimon Cross Roads,04,,52.0802778,-8.7175
ie,ballysinon,Ballysinon,30,,52.52527779999999,-6.4802778
ie,ballysloe,Ballysloe,26,,52.6380556,-7.606111099999999
ie,ballysmuttan,Ballysmuttan,31,,53.1705556,-6.429166700000001
ie,ballysteen,Ballysteen,16,,52.6455556,-8.955
ie,ballysuggart,Ballysuggart,06,,54.5941667,-8.3994444
ie,ballytarsha cross roads,Ballytarsha Cross Roads,01,,52.7491667,-6.874722200000001
ie,ballytarsna,Ballytarsna,15,,52.92722220000001,-7.3880555999999995
ie,ballytarsna,Ballytarsna,26,,52.5763889,-7.8258333
ie,ballytarsna cross roads,Ballytarsna Cross Roads,30,,52.4963889,-6.3655555999999995
ie,ballytarsney,Ballytarsney,13,,52.2975,-7.2466667000000005
ie,ballyteige,Ballyteige,03,,52.95972220000001,-8.9561111
ie,ballyteige bridge,Ballyteige Bridge,31,,52.888611100000006,-6.4075
ie,ballythomas,Ballythomas,15,,53.0508333,-7.178611099999999
ie,ballytiniska cross roads,Ballytiniska Cross Roads,15,,52.8741667,-6.9625
ie,ballytoohy,Ballytoohy,20,,53.815,-9.9777778
ie,ballytoole,Ballytoole,31,,52.9630556,-6.5944444
ie,ballytrasna,Ballytrasna,24,,53.9588889,-8.287777799999999
ie,ballyvaghan,Ballyvaghan,03,,53.1180556,-9.150277800000001
ie,ballyvaldon,Ballyvaldon,30,,52.466666700000005,-6.304166700000001
ie,ballyvallooo,Ballyvallooo,30,,52.4166667,-6.3766667
ie,ballyvalode,Ballyvalode,16,,52.5525,-8.2719444
ie,ballyvaloore,Ballyvaloore,04,,51.9983333,-8.628611099999999
ie,ballyvaltron,Ballyvaltron,31,,52.9,-6.1
ie,ballyvatta,Ballyvatta,04,,51.976944399999994,-8.3016667
ie,ballyvaughan,Ballyvaughan,03,,53.1180556,-9.150277800000001
ie,ballyvaughan,Ballyvaughan,26,,52.3863889,-7.6633333
ie,ballyveera,Ballyveera,26,,52.2891667,-7.852777799999999
ie,ballyvireen bridge,Ballyvireen Bridge,04,,51.5733333,-9.0625
ie,ballyvirrane,Ballyvirrane,11,,52.1252778,-9.7105556
ie,ballyvisteen,Ballyvisteen,04,,52.2722222,-8.4461111
ie,ballyvodane bridge,Ballyvodane Bridge,04,,51.9791667,-8.6875
ie,ballyvodock,Ballyvodock,04,,51.8902778,-8.2130556
ie,ballyvolan,Ballyvolan,31,,53.05222220000001,-6.0847222
ie,ballyvoneen,Ballyvoneen,10,,53.3713889,-8.506388900000001
ie,ballyvoodane,Ballyvoodane,16,,52.351388899999996,-8.5775
ie,ballyvorisheen,Ballyvorisheen,04,,52.023055600000006,-8.49
ie,ballyvorney,Ballyvorney,03,,52.7875,-8.482777800000001
ie,ballyvourcher,Ballyvourcher,03,,52.7333333,-8.566666699999999
ie,ballyvourney,Ballyvourney,04,,51.9333333,-9.166666699999999
ie,ballyvoye,Ballyvoye,04,,51.481944399999996,-9.7622222
ie,ballyvoyle cross roads,Ballyvoyle Cross Roads,27,,52.116944399999994,-7.504722200000001
ie,ballyvramneen,Ballyvramneen,03,,52.9188889,-9.250833300000002
ie,ballywalter,Ballywalter,26,,52.48472220000001,-7.556388900000001
ie,ballywhire,Ballywhire,23,,53.186111100000005,-7.807777799999999
ie,ballywilliam,Ballywilliam,23,,53.1083333,-7.8766667
ie,ballywilliam,Ballywilliam,30,,52.4530556,-6.865277799999999
ie,ballywinna,Ballywinna,10,,53.2419444,-8.7219444
ie,balnacart,Balnacart,29,,53.75,-7.3
ie,balrath,Balrath,21,,53.62472220000001,-6.4880556
ie,balrickard,Balrickard,07,,53.572222200000006,-6.241666700000001
ie,balrothery,Balrothery,07,,53.5955556,-6.2163889
ie,balscaddan,Balscaddan,07,,53.6230556,-6.2308333
ie,baltimore,Baltimore,04,,51.4833333,-9.366666699999998
ie,baltinglass,Baltinglass,31,,52.93722220000001,-6.7091667
ie,baltinoran,Baltinoran,21,,53.4219444,-7.1675
ie,balton's cross roads,Balton's Cross Roads,11,,52.4483333,-9.446666699999998
ie,baltovin,Baltovin,11,,52.3636111,-9.7336111
ie,baltracey cross roads,Baltracey Cross Roads,12,,53.347777799999996,-6.6908332999999995
ie,baltray,Baltray,19,,53.7405556,-6.2675
ie,baltyboys,Baltyboys,31,,53.136944400000004,-6.5261111
ie,baltyboys lower,Baltyboys Lower,31,,53.136944400000004,-6.5261111
ie,balyshalikin,Balyshalikin,16,,52.346388899999994,-8.6302778
ie,banada,Banada,25,,54.0375,-8.8169444
ie,banage south,Banage South,11,,52.1527778,-10.125
ie,banagher,Banagher,14,,54.266388899999995,-8.3225
ie,banagher,Banagher,23,1586.0,53.1886111,-7.9866667
ie,bananalleen,Bananalleen,26,,52.533333299999995,-8.1952778
ie,banane bridge,Banane Bridge,11,,51.8236111,-9.5375
ie,bananimma,Bananimma,22,,54.074444400000004,-6.8975
ie,banard,Banard,11,,52.089722200000004,-9.2961111
ie,bandon,Bandon,04,5493.0,51.7469444,-8.7425
ie,bangor,Bangor,20,,54.1430556,-9.740277800000001
ie,bangor erris,Bangor Erris,20,,54.1430556,-9.740277800000001
ie,banna,Banna,11,,52.3616667,-9.8288889
ie,bannagh cross roads,Bannagh Cross Roads,04,,52.154166700000005,-8.8463889
ie,bannow,Bannow,30,,52.2152778,-6.766111099999999
ie,banoge,Banoge,16,,52.482777799999994,-8.7119444
ie,banraghbaun,Banraghbaun,10,,53.2444444,-9.535
ie,bansha,Bansha,26,,52.448055599999996,-8.0625
ie,banteer,Banteer,04,,52.1166667,-8.9
ie,bantigeen cross roads,Bantigeen Cross Roads,04,,52.2538889,-8.6069444
ie,bantir,Bántir,04,,52.1166667,-8.9
ie,bantry,Bantry,04,3234.0,51.6833333,-9.45
ie,baralty,Baralty,20,,54.2633333,-9.6530556
ie,baravore,Baravore,31,,52.985,-6.4180556
ie,bard inch,Bard Inch,04,,51.9255556,-9.2516667
ie,bargarriff,Bargarriff,03,,52.955,-8.370277799999998
ie,barinoney cross roads,Barinoney Cross Roads,30,,52.3783333,-6.6525
ie,barkmill,Barkmill,15,,53.089722200000004,-7.381111099999999
ie,barleyhill,Barleyhill,04,,52.241111100000005,-8.9869444
ie,barloge,Barloge,04,,51.4955556,-9.315
ie,barmona,Barmona,01,,52.5833333,-6.9
ie,barna,Barna,10,,53.2519444,-9.1497222
ie,barna,Barna,16,,52.5358333,-8.3313889
ie,barna,Barna,23,,52.927777799999994,-7.9494444
ie,barnaboy,Barnaboy,23,,53.315555599999996,-7.3680556
ie,barnacahoge,Barnacahoge,20,,53.9166667,-8.866666699999998
ie,barna cross,Barna Cross,26,,52.7841667,-7.873611099999999
ie,barna cross roads,Barna Cross Roads,04,,51.6313889,-9.3286111
ie,barnacurra,Barnacurra,04,,52.2,-9.066666699999999
ie,barnadarrig,Barnadarrig,15,,52.9433333,-7.429166700000001
ie,barnaderg,Barnaderg,10,,53.4833333,-8.7166667
ie,barnadown,Barnadown,13,,52.4461111,-7.3030555999999995
ie,barnagowlane,Barnagowlane,04,,51.73305560000001,-9.291388900000001
ie,barnakyle bridge,Barnakyle Bridge,16,,52.6083333,-8.6969444
ie,barnalisheen,Barnalisheen,26,,52.7633333,-7.7294444
ie,barnamire,Barnamire,31,,53.18472220000001,-6.2275
ie,barnan,Barnan,23,,53.3255556,-7.323611099999999
ie,barnard cross roads,Barnard Cross Roads,04,,52.0011111,-8.7319444
ie,barnatra,Barnatra,20,,54.220833299999995,-9.843611099999999
ie,barnaviddane,Barnaviddane,04,,51.9944444,-7.9691667
ie,barnbown,Barnbown,31,,52.9630556,-6.1997222
ie,barnes bridge,Barnes Bridge,06,,54.73222220000001,-7.937777799999999
ie,barnesmore,Barnesmore,06,,54.691944400000004,-7.994722200000001
ie,barnetstown,Barnetstown,04,,51.9916667,-8.341944400000001
ie,barnhill cross,Barnhill Cross,19,,53.77638889999999,-6.2633333
ie,barnycarroll,Barnycarroll,20,,53.75,-8.95
ie,baronrath,Baronrath,12,,53.283333299999995,-6.601111099999999
ie,barony bridge,Barony Bridge,04,,51.7613889,-9.525
ie,barrabehy,Barrabehy,13,,52.346388899999994,-7.2644444
ie,barrack,Barrack,04,,52.050277799999996,-8.5975
ie,barrack cross roads,Barrack Cross Roads,04,,52.3047222,-8.857777800000001
ie,barracks cross roads,Barracks Cross Roads,30,,52.226944399999994,-6.3458333
ie,barracks village,Barracks Village,30,,52.389166700000004,-6.720277799999999
ie,barrack village,Barrack Village,13,,52.769444400000005,-7.271111099999999
ie,barrack village,Barrack Village,27,,52.3175,-7.7466667000000005
ie,barrack village,Barrack Village,30,,52.472777799999996,-6.856111099999999
ie,barraden,Barraden,26,,52.596388899999994,-8.0922222
ie,barraderry,Barraderry,10,,53.2555556,-9.58
ie,barraduff,Barraduff,11,,52.0666667,-9.333333300000001
ie,barrahaurin,Barrahaurin,04,,52.0044444,-8.83
ie,barrakilly,Barrakilly,04,,51.7458333,-9.863611099999998
ie,barranisky cross roads,Barranisky Cross Roads,31,,52.8536111,-6.1502778
ie,barranny,Barranny,10,,53.364444400000004,-9.06
ie,barratogher,Barratogher,25,,54.033333299999995,-8.85
ie,barratoor,Barratoor,10,,53.1175,-8.4941667
ie,barreen,Barreen,12,,53.35,-6.668611099999999
ie,barrees,Barrees,04,,51.7202778,-9.9169444
ie,barrel cross roads,Barrel Cross Roads,04,,51.6844444,-8.5727778
ie,barrettstown,Barrettstown,26,,52.4605556,-7.731388900000001
ie,barrigone,Barrigone,16,,52.6,-9.05
ie,barringtonsbridge,Barringtonsbridge,16,,52.644444400000005,-8.4702778
ie,barroe,Barroe,20,,53.9636111,-8.711111099999998
ie,barroe,Barroe,25,,54.0805556,-8.3072222
ie,barronstown,Barronstown,30,,52.4,-6.7333333
ie,barroosky,Barroosky,20,,54.207777799999995,-9.6219444
ie,barroughter,Barroughter,10,,53.082222200000004,-8.3211111
ie,barrow,Barrow,11,,52.3083333,-9.844166699999999
ie,barrowhouse cross roads,Barrowhouse Cross Roads,15,,52.9536111,-6.9863889000000015
ie,barryareigh cross roads,Barryareigh Cross Roads,04,,51.6716667,-8.714722199999999
ie,barry,Barry,18,,53.6,-7.7666667
ie,barrykilla,Barrykilla,04,,51.8441667,-8.1683333
ie,barrysbrook,Barrysbrook,23,,53.3441667,-7.247777799999999
ie,barry's cross roads,Barry's Cross Roads,04,,52.23,-8.855277800000001
ie,barry's cross roads,Barry's Cross Roads,13,,52.8083333,-7.133611099999999
ie,barry's cross roads,Barry's Cross Roads,30,,52.3536111,-6.6491667
ie,barry's glyn,Barry's Glyn,11,,52.125,-9.5230556
ie,bartholomews bridge,Bartholomews Bridge,16,,52.5758333,-9.0794444
ie,bartlemy,Bartlemy,04,,52.048333299999996,-8.2658333
ie,barton port,Barton Port,06,,54.9855556,-8.431111099999999
ie,bateman's bridge,Bateman's Bridge,11,,52.3547222,-9.344166699999999
ie,batterstown,Batterstown,21,,53.46972220000001,-6.5363889
ie,battiemount,Battiemount,12,,53.027777799999996,-6.8708333
ie,battle bridge,Battle Bridge,24,,54.0,-8.0833333
ie,baunballinlough,Baunballinlough,13,,52.7816667,-7.611111099999999
ie,baunclune,Baunclune,11,,52.084166700000004,-9.6961111
ie,baunogemeely,Baunogemeely,15,,52.923333299999996,-7.2066667
ie,baunrosmore,Baunrosmore,25,,54.193611100000005,-9.1163889
ie,bauraneag,Bauraneag,11,,52.5158333,-9.1688889
ie,bauravilla,Bauravilla,04,,51.605,-9.271388900000002
ie,baurnagurrahy,Baurnagurrahy,16,,52.3527778,-8.2766667
ie,baurscoob,Baurscoob,13,,52.5,-7.3166667
ie,bauteogue,Bauteogue,15,,52.991111100000005,-7.2022222000000005
ie,bawananee,Bawananee,04,,52.179444399999994,-9.0805556
ie,bawn,Bawn,26,,52.8294444,-8.215277799999999
ie,bawnboy,Bawnboy,02,,54.1213889,-7.6755556
ie,bawn cross roads,Bawn Cross Roads,04,,52.2333333,-8.9
ie,bawn cross roads,Bawn Cross Roads,18,,53.6666667,-7.7666667
ie,bawndunhill,Bawndunhill,26,,52.4341667,-7.5291667
ie,bawnfune,Bawnfune,27,,52.298055600000005,-7.777222200000001
ie,bawnmore,Bawnmore,04,,51.9566667,-8.961111099999998
ie,bawnoge,Bawnoge,31,,52.9288889,-6.714722200000001
ie,bay bridge,Bay Bridge,15,,53.1297222,-7.321111099999999
ie,baylet,Baylet,06,,55.05472220000001,-7.4616667
ie,baylough bridge,Baylough Bridge,15,,53.1586111,-7.0969444
ie,bay view,Bay View,04,,51.7069444,-9.4302778
ie,beagh,Beagh,10,,53.0508333,-8.7880556
ie,beagh,Beagh,14,,54.1913889,-8.261111099999999
ie,beagh bridge,Beagh Bridge,06,,54.795277799999994,-8.436666699999998
ie,beaghfa,Beaghfa,03,,52.7730556,-9.0772222
ie,beakstown,Beakstown,26,,52.656388899999996,-7.8766667
ie,bealach an doirin,Bealach an Doirín,24,,53.9,-8.583333300000001
ie,bealach an tirialaigh,Bealach an Tirialaigh,29,,53.3888889,-7.373611099999999
ie,bealach conglais,Bealach Conglais,31,,52.93722220000001,-6.7091667
ie,bealach feich,Bealach Féich,06,,54.8,-7.7833333
ie,bealaclugga,Bealaclugga,03,,53.1216667,-9.0683333
ie,bealadangan,Bealadangan,10,,53.316944400000004,-9.6105556
ie,bealad cross roads,Bealad Cross Roads,04,,51.648888899999996,-8.9913889
ie,bealady cross roads,Bealady Cross Roads,15,,52.863055599999996,-7.606944400000001
ie,bealaha,Bealaha,03,,52.7169444,-9.586666699999999
ie,bealahareagh bridge,Bealahareagh Bridge,04,,51.8238889,-8.462777800000001
ie,beal an atha,Béal an Átha,16,,52.35,-8.9666667
ie,beal an atha,Béal An Átha,20,,54.1166667,-9.166666699999999
ie,beal an atha fada,Béal an Átha Fada,25,,54.0275,-8.337222200000001
ie,beal an atha moir,Béal an Átha Móir,14,,54.05,-7.8
ie,beal an da chab,Béal an dá Chab,04,,51.55,-9.4666667
ie,beal an daingin,Béal an Daingin,10,,53.316944400000004,-9.6105556
ie,beal an mhuirthead,Béal an Mhuirthead,20,,54.225,-9.990833300000002
ie,beal atha an ghaorthaidh,Béal Átha an Ghaorthaidh,04,,51.85,-9.233333300000002
ie,beal atha an spideil,Béal Átha an Spidéil,04,,51.667777799999996,-8.6002778
ie,beal atha an tuair,Béal Atha an Tuair,12,,53.0069444,-6.8194444
ie,beal atha beithe,Béal Átha Beithe,22,,54.1261111,-6.9005556
ie,beal atha bhearaigh,Béal Átha Bhearaigh,20,,53.8936111,-9.149166699999999
ie,beal atha chomair,Béal Átha Chomair,23,,53.324444400000004,-7.682777799999999
ie,beal atha conaill,Béal Átha Conaill,02,,54.1166667,-7.5833333
ie,beal atha fearnain,Béal Átha Fearnáin,24,,54.0680556,-8.1994444
ie,beal atha fhinin,Béal Átha Fhínín,04,,51.7369444,-8.956944400000001
ie,beal atha gabhann,Béal Átha Gabhann,26,,52.79027779999999,-8.2341667
ie,beal atha ghartha,Béal Átha Ghártha,10,,53.5166667,-8.3166667
ie,beal atha hamhnais,Béal Átha hAmhnais,20,,53.7666667,-8.766666699999998
ie,beal atha heis,Béal Átha hÉis,02,,54.05,-7.3166667
ie,beal atha liag,Béal Átha Liag,18,,53.6666667,-7.9833333
ie,beal atha longfoirt,Béal Átha Longfoirt,11,,52.5458333,-9.474166699999998
ie,beal atha mo,Béal Átha Mó,10,,53.7,-8.4666667
ie,beal atha na beithe,Béal Átha na Beithe,22,,54.1261111,-6.9005556
ie,beal atha na gcarr,Béal Átha na gCarr,24,,53.8333333,-8.3833333
ie,beal atha na lao,Béal Átha na Lao,18,,53.7666667,-7.633333299999999
ie,beal atha na muice,Béal Átha na Muice,20,,53.95,-8.95
ie,beal atha na neach,Béal Átha na nEach,02,,53.9333333,-7.4166667
ie,beal atha na sluaighe,Béal Átha na Sluaighe,10,,53.3275,-8.2194444
ie,beal atha poirin,Béal Átha Póirin,26,,52.2691667,-8.100277799999999
ie,beal atha ragad,Béal Átha Ragad,13,,52.788888899999996,-7.330277799999999
ie,beal atha seanaidh,Béal Átha Seanaidh,06,,54.5,-8.1833333
ie,beal,Beal,11,,52.5694444,-9.6161111
ie,beal deirg,Béal Deirg,20,,54.3,-9.55
ie,beal easa,Béal Easa,20,,53.9833333,-9.116666699999998
ie,bealin,Bealin,29,,53.4166667,-7.85
ie,bealnabla,Bealnabla,04,,51.8252778,-8.8597222
ie,bealnablath,Bealnablath,04,,51.8252778,-8.8597222
ie,beal na mbuilli,Béal na mBuillí,24,,53.783333299999995,-8.1
ie,bealock,Bealock,04,,51.8244444,-9.1219444
ie,beal tairbirt,Béal Tairbirt,02,,54.1,-7.45
ie,bealtalaw bridge,Bealtalaw Bridge,11,,51.9883333,-9.871388900000001
ie,beannchar,Beannchar,23,,53.1886111,-7.9866667
ie,beannchar iorrais,Beannchar Iorrais,20,,54.1430556,-9.740277800000001
ie,beanntrai,Beanntraí,04,,51.6833333,-9.45
ie,bearna,Bearna,10,,53.2519444,-9.1497222
ie,bearna na gaoithe,Bearna na Gaoithe,13,,52.465555599999995,-7.399722200000001
ie,bearra na gaoithe,Bearra na Gaoithe,13,,52.465555599999995,-7.399722200000001
ie,bearstown,Bearstown,13,,52.3563889,-7.0055556
ie,beaufort,Beaufort,11,,52.0666667,-9.633333300000002
ie,beaufort bridge,Beaufort Bridge,11,,52.075,-9.6294444
ie,beaufort house,Beaufort House,11,,52.0666667,-9.633333300000002
ie,beaumont,Beaumont,07,,53.391388899999995,-6.2405555999999995
ie,beaumont,Beaumont,21,,53.66527779999999,-6.3544444
ie,bective,Bective,21,,53.579722200000006,-6.697222200000001
ie,bective bridge,Bective Bridge,21,,53.579722200000006,-6.697222200000001
ie,bedford cross roads,Bedford Cross Roads,11,,52.4705556,-9.495833300000001
ie,bedlam,Bedlam,06,,55.1166667,-8.15
ie,bedlnamorive,Bedlnamorive,04,,51.9322222,-8.857222199999999
ie,beenalaght,Beenalaght,04,,52.0288889,-8.746111099999998
ie,beenbane,Beenbane,11,,51.9816667,-9.857222199999999
ie,beennamweel,Beennamweel,04,,52.05,-8.7166667
ie,beglieve,Beglieve,02,,53.9425,-7.0355555999999995
ie,behagh,Behagh,03,,53.1366667,-9.064444400000001
ie,behagh,Behagh,04,,51.7563889,-9.054722199999999
ie,behanamuck,Behanamuck,23,,53.2075,-7.7216667
ie,beheenagh,Beheenagh,11,,52.0586111,-9.3055556
ie,behy bridge,Behy Bridge,11,,52.0569444,-9.9505556
ie,behy bridge,Behy Bridge,20,,54.105277799999996,-9.093888900000001
ie,bekan,Bekan,20,,53.75,-8.85
ie,belaghstown cross roads,Belaghstown Cross Roads,12,,53.3116667,-6.720277799999999
ie,belalt,Belalt,06,,54.5433333,-7.8897222000000005
ie,belan,Belan,15,,53.10027779999999,-7.0741667
ie,belcamp,Belcamp,07,,53.4108333,-6.2022222000000005
ie,belcarra,Belcarra,20,,53.8,-9.2166667
ie,belclare,Belclare,10,,53.4833333,-8.933333300000001
ie,beldaragh,Beldaragh,07,,53.56972220000001,-6.2508333
ie,belderg,Belderg,20,,54.3,-9.55
ie,belgard,Belgard,07,,53.3030556,-6.3966667
ie,belgooly,Belgooly,04,,51.7388889,-8.49
ie,belgrove,Belgrove,04,,51.8666667,-8.2
ie,bella byrnes bridge,Bella Byrnes Bridge,31,,52.777222200000004,-6.1713889
ie,bellacorick,Bellacorick,20,,54.1194444,-9.5794444
ie,bellacorick bridge,Bellacorick Bridge,20,,54.1194444,-9.5794444
ie,belladooan,Belladooan,20,,54.1961111,-9.339166699999998
ie,belladrihid,Belladrihid,25,,54.221388899999994,-8.499722199999999
ie,bellafarney,Bellafarney,25,,54.215,-8.9316667
ie,bellagarvaun,Bellagarvaun,20,,53.997777799999994,-9.7791667
ie,bellagill bridge,Bellagill Bridge,10,,53.360833299999996,-8.236388900000001
ie,bellaheady bridge,Bellaheady Bridge,02,,54.089722200000004,-7.6191667
ie,bellahillan bridge,Bellahillan Bridge,02,,53.9616667,-7.455555599999999
ie,bellahy,Bellahy,25,,53.968888899999996,-8.795277800000001
ie,bellanaboy,Bellanaboy,14,,54.0091667,-8.0591667
ie,bellanaboy bridge,Bellanaboy Bridge,20,,54.2244444,-9.753611099999999
ie,bellanacargy,Bellanacargy,02,,54.0416667,-7.2491667
ie,bellanacarra,Bellanacarra,20,,53.9883333,-8.906666699999999
ie,bellanagare,Bellanagare,24,,53.8333333,-8.3833333
ie,bellanamallaght,Bellanamallaght,10,,53.0641667,-8.583611099999999
ie,bellanaman,Bellanaman,22,,54.3038889,-6.8816667
ie,bellanamore,Bellanamore,06,,54.8691667,-8.0555556
ie,bellanamullia,Bellanamullia,24,,53.4166667,-8.0166667
ie,bellananagh,Bellananagh,02,,53.9333333,-7.4166667
ie,bellanasally,Bellanasally,20,,53.997777799999994,-10.038333300000001
ie,bellanode,Bellanode,22,,54.2669444,-7.0341667
ie,bellanograugh bridge,Bellanograugh Bridge,25,,54.0725,-8.850833300000001
ie,bellarush bridge,Bellarush Bridge,25,,54.0913889,-8.352777799999998
ie,bellatrain,Bellatrain,22,,54.04027779999999,-6.868888900000001
ie,bellaugh,Bellaugh,29,,53.4333333,-7.9666667
ie,bellavary,Bellavary,20,,53.8936111,-9.149166699999999
ie,belleek,Belleek,10,,53.4983333,-10.0925
ie,bellewstown,Bellewstown,21,,53.645,-6.345
ie,bell harbour,Bell Harbour,03,,53.1216667,-9.0683333
ie,bellia,Bellia,03,,52.6225,-9.7311111
ie,bellimeny,Bellimeny,24,,53.405,-8.1458333
ie,bellina,Bellina,03,,52.6225,-9.7311111
ie,bellmount,Bellmount,23,,53.255,-7.893611099999999
ie,bellmount,Bellmount,29,,53.3530556,-7.4958333
ie,bellville,Bellville,02,,53.9444444,-7.412222200000001
ie,bellville,Bellville,16,,52.3963889,-8.9269444
ie,belmont,Belmont,11,,52.26,-9.7080556
ie,belmont,Belmont,20,,53.6166667,-8.9666667
ie,belmont,Belmont,23,,53.255,-7.893611099999999
ie,belmuliet,Belmuliet,20,,54.225,-9.990833300000002
ie,belmullet,Belmullet,20,,54.225,-9.990833300000002
ie,belra,Belra,25,,54.131666700000004,-8.68
ie,belrea,Belrea,24,,53.3963889,-8.0433333
ie,beltany,Beltany,06,,55.1,-8.1333333
ie,beltany lower,Beltany Lower,06,,55.1,-8.1333333
ie,beltany upper,Beltany Upper,06,,55.1,-8.1333333
